systemTimeStamp,timeStartup,timeGps,timeSyncIn,timeGpsPps,utcYear,utcMonth,utcDay,utcHour,utcMinute,utcSecond,utcFracsec,gps1UtcYear,gps1UtcMonth,gps1UtcDay,gps1UtcHour,gps1UtcMinute,gps1UtcSecond,gps1UtcFracsec,gnss1NumSats,gnss1Fix,gnss1PosLat,gnss1PosLon,gnss1PosAlt,gnss1PosEcefX,gnss1PosEcefY,gnss1PosEcefY,gnss1PosUncertaintyN,gnss1PosUncertaintyE,gnss1PosUncertaintyD,yaw,pitch,roll,quatX,quatY,quatZ,quatW,insStatus,lat,lon,alt,posEcefX,posEcefY,posEcefZ,posU
777726231607,783551257000,1422575160129338368,783551257000,129347000,25,2,2,23,45,42,130,25,2,2,23,45,42,0,6,3,32.865938,-117.254198,-24.648000,-2455715.135110,-4767207.433445,3441466.393077,11.994866,13.158150,23.500641,-57.218468,-0.462178,-2.450413,-0.020702,0.006698,-0.478796,0.877657,133,32.865935,-117.254202,-29.529226,-2455713.682464,-4767203.856936,3441463.619630,3.709804
777750600070,783576257000,1422575160154338304,783576257000,154347000,25,2,2,23,45,42,155,25,2,2,23,45,42,0,6,3,32.865938,-117.254198,-24.648000,-2455715.135110,-4767207.433445,3441466.393077,11.994866,13.158150,23.500641,-57.221786,-0.457180,-2.454027,-0.020709,0.006752,-0.478820,0.877643,133,32.865935,-117.254202,-29.556803,-2455713.675597,-4767203.835755,3441463.602825,3.711361
777775904977,783601257000,1422575160179338496,783601257000,179347000,25,2,2,23,45,42,180,25,2,2,23,45,42,0,6,3,32.865938,-117.254198,-24.648000,-2455715.135110,-4767207.433445,3441466.393077,11.994866,13.158150,23.500641,-57.224758,-0.449074,-2.461775,-0.020734,0.006847,-0.478841,0.877630,32901,32.865935,-117.254202,-29.584410,-2455713.668794,-4767203.814546,3441463.585957,3.712932
777800284736,783626259000,1422575160204340480,783626259000,204349000,25,2,2,23,45,42,205,25,2,2,23,45,42,0,6,3,32.865938,-117.254198,-24.648000,-2455715.135110,-4767207.433445,3441466.393077,11.994866,13.158150,23.500641,-57.229416,-0.439053,-2.471381,-0.020766,0.006965,-0.478875,0.877610,32901,32.865935,-117.254202,-29.612075,-2455713.661966,-4767203.793292,3441463.569062,3.714515
777826668422,783651257000,1422575160229338368,783651257000,229347000,25,2,2,23,45,42,230,25,2,2,23,45,42,0,6,3,32.865938,-117.254198,-24.648000,-2455715.135110,-4767207.433445,3441466.393077,11.994866,13.158150,23.500641,-57.232353,-0.434419,-2.476767,-0.020787,0.007024,-0.478896,0.877597,133,32.865935,-117.254202,-29.639798,-2455713.655139,-4767203.771992,3441463.552123,3.716113
777849899866,783676257000,1422575160254338304,783676257000,254347000,25,2,2,23,45,42,255,25,2,2,23,45,42,200,6,3,32.865937,-117.254198,-24.643000,-2455715.155110,-4767207.433445,3441466.393077,12.065761,13.190829,23.537560,-57.234207,-0.436310,-2.477503,-0.020801,0.007013,-0.478911,0.877589,133,32.865935,-117.254202,-29.503942,-2455713.714165,-4767203.889700,3441463.598671,3.692571
777876414236,783701257000,1422575160279338240,783701257000,279347000,25,2,2,23,45,42,280,25,2,2,23,45,42,200,6,3,32.865937,-117.254198,-24.643000,-2455715.155110,-4767207.433445,3441466.393077,12.065761,13.190829,23.537560,-57.236080,-0.433824,-2.481361,-0.020820,0.007048,-0.478925,0.877581,133,32.865935,-117.254202,-29.531137,-2455713.707667,-4767203.868957,3441463.581705,3.694431
777899638977,783726256000,1422575160304337152,783726256000,304346000,25,2,2,23,45,42,305,25,2,2,23,45,42,200,6,3,32.865937,-117.254198,-24.643000,-2455715.155110,-4767207.433445,3441466.393077,12.065761,13.190829,23.537560,-57.237400,-0.431149,-2.484639,-0.020834,0.007083,-0.478934,0.877575,32901,32.865935,-117.254202,-29.558589,-2455713.701031,-4767203.848007,3441463.564649,3.695995
777926122644,783751257000,1422575160329338368,783751257000,329347000,25,2,2,23,45,42,330,25,2,2,23,45,42,200,6,3,32.865937,-117.254198,-24.643000,-2455715.155110,-4767207.433445,3441466.393077,12.065761,13.190829,23.537560,-57.239246,-0.428690,-2.486531,-0.020838,0.007110,-0.478948,0.877567,32901,32.865935,-117.254202,-29.586088,-2455713.694358,-4767203.827027,3441463.547573,3.697571
777950820514,783776257000,1422575160354338304,783776257000,354347000,25,2,2,23,45,42,355,25,2,2,23,45,42,200,6,3,32.865937,-117.254198,-24.643000,-2455715.155110,-4767207.433445,3441466.393077,12.065761,13.190829,23.537560,-57.240860,-0.427662,-2.488512,-0.020849,0.007126,-0.478960,0.877560,133,32.865935,-117.254202,-29.613587,-2455713.687709,-4767203.806000,3441463.530545,3.699161
777976498810,783801257000,1422575160379338240,783801257000,379347000,25,2,2,23,45,42,380,25,2,2,23,45,42,200,6,3,32.865937,-117.254198,-24.643000,-2455715.155110,-4767207.433445,3441466.393077,12.065761,13.190829,23.537560,-57.242393,-0.425665,-2.490228,-0.020853,0.007149,-0.478971,0.877554,133,32.865935,-117.254202,-29.641248,-2455713.681051,-4767203.784843,3441463.513404,3.700763
778001309421,783826257000,1422575160404338432,783826257000,404347000,25,2,2,23,45,42,405,25,2,2,23,45,42,200,6,3,32.865937,-117.254198,-24.643000,-2455715.155110,-4767207.433445,3441466.393077,12.065761,13.190829,23.537560,-57.243980,-0.424378,-2.491644,-0.020859,0.007165,-0.478983,0.877547,32901,32.865935,-117.254202,-29.668970,-2455713.674347,-4767203.763706,3441463.496155,3.702380
778025584681,783851257000,1422575160429338368,783851257000,429347000,25,2,2,23,45,42,430,25,2,2,23,45,42,200,6,3,32.865937,-117.254198,-24.643000,-2455715.155110,-4767207.433445,3441466.393077,12.065761,13.190829,23.537560,-57.245228,-0.428085,-2.490469,-0.020865,0.007132,-0.478993,0.877542,32901,32.865935,-117.254202,-29.696716,-2455713.667662,-4767203.742485,3441463.478964,3.704009
778050906347,783876257000,1422575160454338304,783876257000,454347000,25,2,2,23,45,42,455,25,2,2,23,45,42,400,6,3,32.865937,-117.254199,-24.632000,-2455715.175110,-4767207.433445,3441466.403077,12.137686,13.224672,23.575075,-57.246635,-0.428090,-2.490168,-0.020863,0.007131,-0.479004,0.877536,133,32.865935,-117.254202,-29.554762,-2455713.731984,-4767203.855710,3441463.539163,3.680573
778076257588,783901257000,1422575160479338496,783901257000,479347000,25,2,2,23,45,42,480,25,2,2,23,45,42,400,6,3,32.865937,-117.254199,-24.632000,-2455715.175110,-4767207.433445,3441466.403077,12.137686,13.224672,23.575075,-57.248573,-0.420788,-2.495914,-0.020876,0.007211,-0.479017,0.877528,133,32.865935,-117.254202,-29.582244,-2455713.726631,-4767203.834222,3441463.521882,3.682468
778100519792,783926257000,1422575160504338176,783926257000,504347000,25,2,2,23,45,42,505,25,2,2,23,45,42,400,6,3,32.865937,-117.254199,-24.632000,-2455715.175110,-4767207.433445,3441466.403077,12.137686,13.224672,23.575075,-57.249813,-0.415723,-2.499688,-0.020884,0.007266,-0.479026,0.877522,32901,32.865935,-117.254202,-29.609681,-2455713.720263,-4767203.813271,3441463.504664,3.684059
778125918699,783951257000,1422575160529338368,783951257000,529347000,25,2,2,23,45,42,530,25,2,2,23,45,42,400,6,3,32.865937,-117.254199,-24.632000,-2455715.175110,-4767207.433445,3441466.403077,12.137686,13.224672,23.575075,-57.250595,-0.414056,-2.500982,-0.020887,0.007284,-0.479032,0.877519,32901,32.865934,-117.254202,-29.637197,-2455713.713790,-4767203.792296,3441463.487408,3.685665
778150401995,783976257000,1422575160554338560,783976257000,554347000,25,2,2,23,45,42,555,25,2,2,23,45,42,400,6,3,32.865937,-117.254199,-24.632000,-2455715.175110,-4767207.433445,3441466.403077,12.137686,13.224672,23.575075,-57.252037,-0.412609,-2.502196,-0.020890,0.007301,-0.479042,0.877513,133,32.865934,-117.254202,-29.664764,-2455713.707351,-4767203.771233,3441463.470155,3.687284
778176162588,784001257000,1422575160579338240,784001257000,579347000,25,2,2,23,45,42,580,25,2,2,23,45,42,400,6,3,32.865937,-117.254199,-24.632000,-2455715.175110,-4767207.433445,3441466.403077,12.137686,13.224672,23.575075,-57.253281,-0.406738,-2.507116,-0.020903,0.007366,-0.479051,0.877507,133,32.865934,-117.254203,-29.692382,-2455713.700920,-4767203.750127,3441463.452862,3.688917
778200684384,784026257000,1422575160604338432,784026257000,604347000,25,2,2,23,45,42,605,25,2,2,23,45,42,400,6,3,32.865937,-117.254199,-24.632000,-2455715.175110,-4767207.433445,3441466.403077,12.137686,13.224672,23.575075,-57.254829,-0.403087,-2.510684,-0.020915,0.007410,-0.479062,0.877501,32901,32.865934,-117.254203,-29.720174,-2455713.695665,-4767203.728217,3441463.435521,3.690560
778225981644,784051257000,1422575160629338368,784051257000,629347000,25,2,2,23,45,42,630,25,2,2,23,45,42,400,6,3,32.865937,-117.254199,-24.632000,-2455715.175110,-4767207.433445,3441466.403077,12.137686,13.224672,23.575075,-57.255630,-0.404122,-2.508945,-0.020906,0.007394,-0.479068,0.877498,32901,32.865934,-117.254203,-29.747967,-2455713.689242,-4767203.706959,3441463.418108,3.692219
778251362995,784076257000,1422575160654338304,784076257000,654347000,25,2,2,23,45,42,655,25,2,2,23,45,42,600,6,3,32.865937,-117.254199,-24.596000,-2455715.225110,-4767207.453445,3441466.413077,12.209167,13.254538,23.605362,-57.256104,-0.407995,-2.506555,-0.020904,0.007355,-0.479072,0.877496,32901,32.865934,-117.254203,-29.606645,-2455713.755405,-4767203.830940,3441463.461039,3.669188
778275629699,784101257000,1422575160679338496,784101257000,679347000,25,2,2,23,45,42,680,25,2,2,23,45,42,600,6,3,32.865937,-117.254199,-24.596000,-2455715.225110,-4767207.453445,3441466.413077,12.209167,13.254538,23.605362,-57.257092,-0.405403,-2.508001,-0.020904,0.007381,-0.479079,0.877492,133,32.865934,-117.254203,-29.633820,-2455713.749406,-4767203.810349,3441463.443546,3.671122
778300941958,784126257000,1422575160704338432,784126257000,704347000,25,2,2,23,45,42,705,25,2,2,23,45,42,600,6,3,32.865937,-117.254199,-24.596000,-2455715.225110,-4767207.453445,3441466.413077,12.209167,13.254538,23.605362,-57.257786,-0.400429,-2.512391,-0.020916,0.007438,-0.479084,0.877488,133,32.865934,-117.254203,-29.661248,-2455713.743162,-4767203.789536,3441463.426068,3.672748
778326314866,784151257000,1422575160729338368,784151257000,729347000,25,2,2,23,45,42,730,25,2,2,23,45,42,600,6,3,32.865937,-117.254199,-24.596000,-2455715.225110,-4767207.453445,3441466.413077,12.209167,13.254538,23.605362,-57.259090,-0.402057,-2.512607,-0.020925,0.007426,-0.479094,0.877483,32901,32.865934,-117.254203,-29.688760,-2455713.736977,-4767203.768669,3441463.408467,3.674387
778350766718,784176261000,1422575160754342400,784176261000,754351000,25,2,2,23,45,42,755,25,2,2,23,45,42,600,6,3,32.865937,-117.254199,-24.596000,-2455715.225110,-4767207.453445,3441466.413077,12.209167,13.254538,23.605362,-57.260014,-0.402985,-2.512127,-0.020925,0.007417,-0.479101,0.877479,32901,32.865934,-117.254203,-29.716313,-2455713.730770,-4767203.747758,3441463.390867,3.676039
778375632069,784201257000,1422575160779338240,784201257000,779347000,25,2,2,23,45,42,780,25,2,2,23,45,42,600,6,3,32.865937,-117.254199,-24.596000,-2455715.225110,-4767207.453445,3441466.413077,12.209167,13.254538,23.605362,-57.260384,-0.396942,-2.517029,-0.020937,0.007484,-0.479103,0.877477,133,32.865934,-117.254203,-29.743866,-2455713.724668,-4767203.726799,3441463.373257,3.677705
778400393440,784226257000,1422575160804338432,784226257000,804347000,25,2,2,23,45,42,805,25,2,2,23,45,42,600,6,3,32.865937,-117.254199,-24.596000,-2455715.225110,-4767207.453445,3441466.413077,12.209167,13.254538,23.605362,-57.261265,-0.396255,-2.518177,-0.020943,0.007494,-0.479109,0.877473,133,32.865934,-117.254203,-29.771582,-2455713.718373,-4767203.705772,3441463.355579,3.679384
778425714532,784251257000,1422575160829338368,784251257000,829347000,25,2,2,23,45,42,830,25,2,2,23,45,42,600,6,3,32.865937,-117.254199,-24.596000,-2455715.225110,-4767207.453445,3441466.413077,12.209167,13.254538,23.605362,-57.261593,-0.395989,-2.518043,-0.020941,0.007496,-0.479112,0.877472,32901,32.865934,-117.254203,-29.799276,-2455713.712134,-4767203.684726,3441463.337925,3.681076
778451030366,784276257000,1422575160854338304,784276257000,854347000,25,2,2,23,45,42,855,25,2,2,23,45,42,800,6,3,32.865938,-117.254199,-24.630000,-2455715.195110,-4767207.423445,3441466.403077,12.278020,13.282843,23.635313,-57.261749,-0.395216,-2.518746,-0.020943,0.007505,-0.479113,0.877471,32901,32.865933,-117.254203,-29.617082,-2455713.761000,-4767203.859349,3441463.398750,3.656708
778475406495,784301257000,1422575160879338240,784301257000,879347000,25,2,2,23,45,42,880,25,2,2,23,45,42,800,6,3,32.865938,-117.254199,-24.630000,-2455715.195110,-4767207.423445,3441466.403077,12.278020,13.282843,23.635313,-57.262703,-0.389541,-2.524167,-0.020961,0.007571,-0.479119,0.877467,133,32.865933,-117.254203,-29.644165,-2455713.754728,-4767203.839225,3441463.380979,3.658652
778500623866,784326260000,1422575160904341504,784326260000,904350000,25,2,2,23,45,42,905,25,2,2,23,45,42,800,6,3,32.865938,-117.254199,-24.630000,-2455715.195110,-4767207.423445,3441466.403077,12.278020,13.282843,23.635313,-57.263943,-0.387545,-2.526269,-0.020968,0.007595,-0.479128,0.877462,133,32.865933,-117.254203,-29.671429,-2455713.748468,-4767203.818890,3441463.363157,3.660287
778525984199,784351257000,1422575160929338368,784351257000,929347000,25,2,2,23,45,42,930,25,2,2,23,45,42,800,6,3,32.865938,-117.254199,-24.630000,-2455715.195110,-4767207.423445,3441466.403077,12.278020,13.282843,23.635313,-57.264561,-0.394008,-2.522253,-0.020965,0.007529,-0.479134,0.877459,32901,32.865933,-117.254203,-29.698734,-2455713.742266,-4767203.798494,3441463.345300,3.661935
778550699680,784376257000,1422575160954338304,784376257000,954347000,25,2,2,23,45,42,955,25,2,2,23,45,42,800,6,3,32.865938,-117.254199,-24.630000,-2455715.195110,-4767207.423445,3441466.403077,12.278020,13.282843,23.635313,-57.266121,-0.400084,-2.518905,-0.020964,0.007469,-0.479147,0.877452,32901,32.865933,-117.254203,-29.726088,-2455713.736016,-4767203.778076,3441463.327418,3.663596
778576136995,784401260000,1422575160979341312,784401260000,979350000,25,2,2,23,45,42,980,25,2,2,23,45,42,800,6,3,32.865938,-117.254199,-24.630000,-2455715.195110,-4767207.423445,3441466.403077,12.278020,13.282843,23.635313,-57.267120,-0.399011,-2.520199,-0.020970,0.007483,-0.479154,0.877448,133,32.865933,-117.254203,-29.753524,-2455713.729798,-4767203.757573,3441463.309480,3.665270
778600518162,784426257000,1422575161004338176,784426257000,4349000,25,2,2,23,45,43,5,25,2,2,23,45,42,800,6,3,32.865938,-117.254199,-24.630000,-2455715.195110,-4767207.423445,3441466.403077,12.278020,13.282843,23.635313,-57.267773,-0.394673,-2.524164,-0.020982,0.007533,-0.479159,0.877445,133,32.865933,-117.254203,-29.781118,-2455713.723549,-4767203.736940,3441463.291451,3.666619
778625894847,784451257000,1422575161029338368,784451257000,29349000,25,2,2,23,45,43,30,25,2,2,23,45,42,800,6,3,32.865938,-117.254199,-24.630000,-2455715.195110,-4767207.423445,3441466.403077,12.278020,13.282843,23.635313,-57.268181,-0.393586,-2.524692,-0.020981,0.007543,-0.479162,0.877444,32901,32.865933,-117.254203,-29.808517,-2455713.717265,-4767203.716466,3441463.273589,3.668658
778650168884,784476257000,1422575161054340352,784476257000,54349000,25,2,2,23,45,43,55,25,2,2,23,45,43,0,6,3,32.865938,-117.254198,-24.713000,-2455715.125110,-4767207.363445,3441466.393077,12.335144,13.301846,23.649773,-57.268276,-0.390116,-2.526964,-0.020984,0.007579,-0.479162,0.877443,32901,32.865933,-117.254203,-29.638408,-2455713.767637,-4767203.876294,3441463.331434,3.644727
778675459736,784501256000,1422575161079339264,784501256000,79348000,25,2,2,23,45,43,80,25,2,2,23,45,43,0,6,3,32.865938,-117.254198,-24.713000,-2455715.125110,-4767207.363445,3441466.393077,12.335144,13.301846,23.649773,-57.268814,-0.389270,-2.528700,-0.020994,0.007593,-0.479165,0.877441,133,32.865933,-117.254203,-29.665253,-2455713.761429,-4767203.856609,3441463.313451,3.646687
778700809754,784526256000,1422575161104339456,784526256000,104348000,25,2,2,23,45,43,105,25,2,2,23,45,43,0,6,3,32.865938,-117.254198,-24.713000,-2455715.125110,-4767207.363445,3441466.393077,12.335144,13.301846,23.649773,-57.269352,-0.395493,-2.523594,-0.020981,0.007524,-0.479171,0.877439,133,32.865933,-117.254203,-29.692363,-2455713.755227,-4767203.836667,3441463.295330,3.648334
778725070514,784551257000,1422575161129340160,784551257000,129349000,25,2,2,23,45,43,130,25,2,2,23,45,43,0,6,3,32.865938,-117.254198,-24.713000,-2455715.125110,-4767207.363445,3441466.393077,12.335144,13.301846,23.649773,-57.269352,-0.403472,-2.517411,-0.020967,0.007437,-0.479172,0.877439,32901,32.865933,-117.254203,-29.719534,-2455713.749012,-4767203.816676,3441463.277173,3.649993
778750280921,784576257000,1422575161154340352,784576257000,154349000,25,2,2,23,45,43,155,25,2,2,23,45,43,0,6,3,32.865938,-117.254198,-24.713000,-2455715.125110,-4767207.363445,3441466.393077,12.335144,13.301846,23.649773,-57.270573,-0.394985,-2.523945,-0.020981,0.007530,-0.479180,0.877434,32901,32.865933,-117.254203,-29.746778,-2455713.742807,-4767203.796596,3441463.258998,3.651666
778775161162,784601256000,1422575161179339264,784601256000,179348000,25,2,2,23,45,43,180,25,2,2,23,45,43,0,6,3,32.865938,-117.254198,-24.713000,-2455715.125110,-4767207.363445,3441466.393077,12.335144,13.301846,23.649773,-57.271797,-0.376769,-2.536840,-0.021004,0.007724,-0.479186,0.877428,32901,32.865933,-117.254203,-29.774078,-2455713.736598,-4767203.776454,3441463.240806,3.653351
778800924995,784626257000,1422575161204340224,784626257000,204349000,25,2,2,23,45,43,205,25,2,2,23,45,43,0,6,3,32.865938,-117.254198,-24.713000,-2455715.125110,-4767207.363445,3441466.393077,12.335144,13.301846,23.649773,-57.276768,-0.357535,-2.551289,-0.021034,0.007932,-0.479220,0.877407,133,32.865933,-117.254203,-29.801440,-2455713.730373,-4767203.756268,3441463.222573,3.655050
778825375532,784651257000,1422575161229340416,784651257000,229349000,25,2,2,23,45,43,230,25,2,2,23,45,43,0,6,3,32.865938,-117.254198,-24.713000,-2455715.125110,-4767207.363445,3441466.393077,12.335144,13.301846,23.649773,-57.279987,-0.336141,-2.568529,-0.021076,0.008169,-0.479240,0.877393,133,32.865933,-117.254203,-29.829004,-2455713.725371,-4767203.735269,3441463.204219,3.656759
778850698514,784676257000,1422575161254340096,784676257000,254349000,25,2,2,23,45,43,255,25,2,2,23,45,43,200,6,3,32.865938,-117.254198,-24.763000,-2455715.105110,-4767207.313445,3441466.373077,12.386772,13.309959,23.655338,-57.285461,-0.310450,-2.589732,-0.021131,0.008455,-0.479276,0.877369,32901,32.865932,-117.254203,-29.675538,-2455713.779654,-4767203.867399,3441463.266734,3.633559
778875445051,784701257000,1422575161279340288,784701257000,279349000,25,2,2,23,45,43,280,25,2,2,23,45,43,200,6,3,32.865938,-117.254198,-24.763000,-2455715.105110,-4767207.313445,3441466.373077,12.386772,13.309959,23.655338,-57.292011,-0.296518,-2.602014,-0.021166,0.008614,-0.479323,0.877341,32901,32.865932,-117.254203,-29.702318,-2455713.773669,-4767203.847850,3441463.248528,3.635541
778900005884,784726257000,1422575161304340480,784726257000,304349000,25,2,2,23,45,43,305,25,2,2,23,45,43,200,6,3,32.865938,-117.254198,-24.763000,-2455715.105110,-4767207.313445,3441466.373077,12.386772,13.309959,23.655338,-57.293568,-0.311531,-2.591866,-0.021151,0.008457,-0.479338,0.877335,133,32.865932,-117.254203,-29.729363,-2455713.767585,-4767203.828066,3441463.230224,3.637208
778925611032,784751257000,1422575161329340160,784751257000,329349000,25,2,2,23,45,43,330,25,2,2,23,45,43,200,6,3,32.865938,-117.254198,-24.763000,-2455715.105110,-4767207.313445,3441466.373077,12.386772,13.309959,23.655338,-57.295227,-0.334795,-2.576414,-0.021130,0.008215,-0.479356,0.877328,133,32.865932,-117.254203,-29.756419,-2455713.761455,-4767203.808315,3441463.211889,3.638887
778951334532,784776257000,1422575161354340352,784776257000,354349000,25,2,2,23,45,43,355,25,2,2,23,45,43,200,6,3,32.865938,-117.254198,-24.763000,-2455715.105110,-4767207.313445,3441466.373077,12.386772,13.309959,23.655338,-57.295673,-0.345897,-2.567782,-0.021110,0.008094,-0.479362,0.877326,32901,32.865932,-117.254203,-29.783550,-2455713.755315,-4767203.788483,3441463.193535,3.640579
778975258754,784801257000,1422575161379340288,784801257000,379349000,25,2,2,23,45,43,380,25,2,2,23,45,43,200,6,3,32.865938,-117.254198,-24.763000,-2455715.105110,-4767207.313445,3441466.373077,12.386772,13.309959,23.655338,-57.299313,-0.349954,-2.565477,-0.021109,0.008054,-0.479390,0.877311,32901,32.865932,-117.254203,-29.810691,-2455713.749160,-4767203.768656,3441463.175166,3.642285
779000675180,784826257000,1422575161404340224,784826257000,404349000,25,2,2,23,45,43,405,25,2,2,23,45,43,200,6,3,32.865938,-117.254198,-24.763000,-2455715.105110,-4767207.313445,3441466.373077,12.386772,13.309959,23.655338,-57.306561,-0.347891,-2.568184,-0.021121,0.008082,-0.479445,0.877280,133,32.865932,-117.254203,-29.837924,-2455713.743139,-4767203.748691,3441463.156720,3.644003
779025467236,784851257000,1422575161429340416,784851257000,429349000,25,2,2,23,45,43,430,25,2,2,23,45,43,200,6,3,32.865938,-117.254198,-24.763000,-2455715.105110,-4767207.313445,3441466.373077,12.386772,13.309959,23.655338,-57.312054,-0.348875,-2.568433,-0.021126,0.008077,-0.479487,0.877257,133,32.865932,-117.254203,-29.865263,-2455713.736991,-4767203.728669,3441463.138249,3.645735
779050293328,784876257000,1422575161454340096,784876257000,454349000,25,2,2,23,45,43,455,25,2,2,23,45,43,400,6,3,32.865938,-117.254198,-24.865000,-2455715.035110,-4767207.233445,3441466.353077,12.437002,13.316588,23.661083,-57.313610,-0.352612,-2.566580,-0.021128,0.008041,-0.479500,0.877251,32901,32.865932,-117.254203,-29.688902,-2455713.781176,-4767203.895614,3441463.202206,3.621790
779075841495,784901257000,1422575161479340288,784901257000,479349000,25,2,2,23,45,43,480,25,2,2,23,45,43,400,6,3,32.865938,-117.254198,-24.865000,-2455715.035110,-4767207.233445,3441466.353077,12.437002,13.316588,23.661083,-57.315517,-0.355277,-2.563598,-0.021116,0.008008,-0.479515,0.877243,32901,32.865932,-117.254203,-29.715495,-2455713.775036,-4767203.876577,3441463.183748,3.623781
779100699236,784926257000,1422575161504340224,784926257000,504349000,25,2,2,23,45,43,505,25,2,2,23,45,43,400,6,3,32.865938,-117.254198,-24.865000,-2455715.035110,-4767207.233445,3441466.353077,12.437002,13.316588,23.661083,-57.317146,-0.356399,-2.562153,-0.021109,0.007994,-0.479528,0.877236,133,32.865932,-117.254203,-29.742372,-2455713.768889,-4767203.857251,3441463.165173,3.625454
779125428069,784951257000,1422575161529340160,784951257000,529349000,25,2,2,23,45,43,530,25,2,2,23,45,43,400,6,3,32.865938,-117.254198,-24.865000,-2455715.035110,-4767207.233445,3441466.353077,12.437002,13.316588,23.661083,-57.318562,-0.361797,-2.557351,-0.021095,0.007933,-0.479540,0.877231,133,32.865932,-117.254203,-29.769297,-2455713.762727,-4767203.837895,3441463.146557,3.627139
779149908810,784976257000,1422575161554340352,784976257000,554349000,25,2,2,23,45,43,555,25,2,2,23,45,43,400,6,3,32.865938,-117.254198,-24.865000,-2455715.035110,-4767207.233445,3441466.353077,12.437002,13.316588,23.661083,-57.320541,-0.362335,-2.555171,-0.021081,0.007920,-0.479555,0.877223,49285,32.865932,-117.254203,-29.796215,-2455713.756518,-4767203.818573,3441463.127941,3.628837
779175716236,785001257000,1422575161579340288,785001257000,579349000,25,2,2,23,45,43,580,25,2,2,23,45,43,400,6,3,32.865938,-117.254198,-24.865000,-2455715.035110,-4767207.233445,3441466.353077,12.437002,13.316588,23.661083,-57.323235,-0.362333,-2.555431,-0.021082,0.007921,-0.479576,0.877211,49285,32.865932,-117.254203,-29.823256,-2455713.750428,-4767203.799082,3441463.109248,3.630548
779200617698,785026257000,1422575161604340224,785026257000,604349000,25,2,2,23,45,43,605,25,2,2,23,45,43,400,6,3,32.865938,-117.254198,-24.865000,-2455715.035110,-4767207.233445,3441466.353077,12.437002,13.316588,23.661083,-57.327187,-0.368276,-2.550688,-0.021071,0.007857,-0.479608,0.877195,49285,32.865931,-117.254203,-29.850372,-2455713.744192,-4767203.779585,3441463.090526,3.632272
779226008421,785051257000,1422575161629340160,785051257000,629349000,25,2,2,23,45,43,630,25,2,2,23,45,43,400,6,3,32.865938,-117.254198,-24.865000,-2455715.035110,-4767207.233445,3441466.353077,12.437002,13.316588,23.661083,-57.330441,-0.373296,-2.546329,-0.021058,0.007801,-0.479634,0.877182,30853,32.865931,-117.254203,-29.877434,-2455713.738032,-4767203.760113,3441463.071817,3.634009
779250308217,785076257000,1422575161654340352,785076257000,654349000,25,2,2,23,45,43,655,25,2,2,23,45,43,600,6,3,32.865938,-117.254198,-24.892000,-2455715.025110,-4767207.213445,3441466.333077,12.486683,13.323666,23.667048,-57.336742,-0.372961,-2.548144,-0.021070,0.007812,-0.479682,0.877155,30853,32.865931,-117.254203,-29.738911,-2455713.796788,-4767203.875520,3441463.126638,3.611768
779275171773,785101257000,1422575161679340288,785101257000,679349000,25,2,2,23,45,43,680,25,2,2,23,45,43,600,6,3,32.865938,-117.254198,-24.892000,-2455715.025110,-4767207.213445,3441466.333077,12.486683,13.323666,23.667048,-57.342373,-0.380925,-2.543322,-0.021066,0.007732,-0.479726,0.877131,39045,32.865931,-117.254203,-29.765663,-2455713.790793,-4767203.856427,3441463.107862,3.613793
779300522828,785126257000,1422575161704340224,785126257000,704349000,25,2,2,23,45,43,705,25,2,2,23,45,43,600,6,3,32.865938,-117.254198,-24.892000,-2455715.025110,-4767207.213445,3441466.333077,12.486683,13.323666,23.667048,-57.349476,-0.394721,-2.532993,-0.021044,0.007584,-0.479783,0.877102,39045,32.865931,-117.254203,-29.792491,-2455713.784791,-4767203.837271,3441463.089036,3.615494
779326226310,785151257000,1422575161729340416,785151257000,729349000,25,2,2,23,45,43,730,25,2,2,23,45,43,600,6,3,32.865938,-117.254198,-24.892000,-2455715.025110,-4767207.213445,3441466.333077,12.486683,13.323666,23.667048,-57.357521,-0.406451,-2.525558,-0.021036,0.007465,-0.479847,0.877068,133,32.865931,-117.254203,-29.819357,-2455713.778791,-4767203.818089,3441463.070175,3.617208
779349721087,785176257000,1422575161754340096,785176257000,754349000,25,2,2,23,45,43,755,25,2,2,23,45,43,600,6,3,32.865938,-117.254198,-24.892000,-2455715.025110,-4767207.213445,3441466.333077,12.486683,13.323666,23.667048,-57.366844,-0.420972,-2.516734,-0.021029,0.007318,-0.479921,0.877029,133,32.865931,-117.254203,-29.846313,-2455713.772737,-4767203.798832,3441463.051291,3.618934
779375749884,785201257000,1422575161779340288,785201257000,779349000,25,2,2,23,45,43,780,25,2,2,23,45,43,600,6,3,32.865938,-117.254198,-24.892000,-2455715.025110,-4767207.213445,3441466.333077,12.486683,13.323666,23.667048,-57.376980,-0.431024,-2.510407,-0.021022,0.007217,-0.480001,0.876986,32901,32.865931,-117.254203,-29.873344,-2455713.766755,-4767203.779506,3441463.032313,3.620325
779400472976,785226256000,1422575161804339200,785226256000,804348000,25,2,2,23,45,43,805,25,2,2,23,45,43,600,6,3,32.865938,-117.254198,-24.892000,-2455715.025110,-4767207.213445,3441466.333077,12.486683,13.323666,23.667048,-57.388222,-0.444562,-2.503103,-0.021022,0.007085,-0.480090,0.876939,32901,32.865931,-117.254203,-29.900333,-2455713.760683,-4767203.760245,3441463.013385,3.622426
779426314680,785251257000,1422575161829340160,785251257000,829349000,25,2,2,23,45,43,830,25,2,2,23,45,43,600,6,3,32.865938,-117.254198,-24.892000,-2455715.025110,-4767207.213445,3441466.333077,12.486683,13.323666,23.667048,-57.401917,-0.450815,-2.500514,-0.021027,0.007028,-0.480195,0.876881,133,32.865931,-117.254203,-29.927362,-2455713.754634,-4767203.740947,3441462.994417,3.624192
779450380772,785276257000,1422575161854340352,785276257000,854349000,25,2,2,23,45,43,855,25,2,2,23,45,43,800,6,3,32.865938,-117.254198,-24.956000,-2455715.005110,-4767207.153445,3441466.313077,12.535757,13.330619,23.673218,-57.412960,-0.454994,-2.499766,-0.021038,0.006995,-0.480281,0.876835,133,32.865931,-117.254203,-29.776726,-2455713.805178,-4767203.866213,3441463.063814,3.601493
779476077309,785301257000,1422575161879340288,785301257000,879349000,25,2,2,23,45,43,880,25,2,2,23,45,43,800,6,3,32.865938,-117.254198,-24.956000,-2455715.005110,-4767207.153445,3441466.313077,12.535757,13.330619,23.673218,-57.425243,-0.457422,-2.501583,-0.021062,0.006987,-0.480375,0.876783,32901,32.865931,-117.254203,-29.803330,-2455713.799244,-4767203.847380,3441463.044910,3.603542
779500778013,785326257000,1422575161904340224,785326257000,904349000,25,2,2,23,45,43,905,25,2,2,23,45,43,800,6,3,32.865938,-117.254198,-24.956000,-2455715.005110,-4767207.153445,3441466.313077,12.535757,13.330619,23.673218,-57.439182,-0.461592,-2.501620,-0.021079,0.006958,-0.480482,0.876724,32901,32.865931,-117.254203,-29.830135,-2455713.793345,-4767203.828339,3441463.025896,3.605263
779525765291,785351257000,1422575161929340416,785351257000,929349000,25,2,2,23,45,43,930,25,2,2,23,45,43,800,6,3,32.865938,-117.254198,-24.956000,-2455715.005110,-4767207.153445,3441466.313077,12.535757,13.330619,23.673218,-57.451595,-0.470441,-2.497725,-0.021085,0.006876,-0.480579,0.876671,133,32.865931,-117.254203,-29.856986,-2455713.787420,-4767203.809281,3441463.006838,3.606997
779550598365,785376257000,1422575161954340096,785376257000,954349000,25,2,2,23,45,43,955,25,2,2,23,45,43,800,6,3,32.865938,-117.254198,-24.956000,-2455715.005110,-4767207.153445,3441466.313077,12.535757,13.330619,23.673218,-57.458546,-0.474302,-2.495981,-0.021088,0.006840,-0.480633,0.876642,133,32.865931,-117.254203,-29.883837,-2455713.781470,-4767203.790183,3441462.987856,3.608743
779576463346,785401257000,1422575161979340288,785401257000,979349000,25,2,2,23,45,43,980,25,2,2,23,45,43,800,6,3,32.865938,-117.254198,-24.956000,-2455715.005110,-4767207.153445,3441466.313077,12.535757,13.330619,23.673218,-57.460670,-0.473283,-2.497611,-0.021096,0.006855,-0.480649,0.876633,32901,32.865931,-117.254203,-29.910876,-2455713.775511,-4767203.770988,3441462.968664,3.610503
779601540272,785426256000,1422575162004339200,785426256000,4350000,25,2,2,23,45,44,5,25,2,2,23,45,43,800,6,3,32.865938,-117.254198,-24.956000,-2455715.005110,-4767207.153445,3441466.313077,12.535757,13.330619,23.673218,-57.460007,-0.463452,-2.505420,-0.021114,0.006963,-0.480642,0.876635,32901,32.865930,-117.254203,-29.937880,-2455713.769636,-4767203.751761,3441462.949523,3.612275
779626486513,785451257000,1422575162029340160,785451257000,29351000,25,2,2,23,45,44,30,25,2,2,23,45,43,800,6,3,32.865938,-117.254198,-24.956000,-2455715.005110,-4767207.153445,3441466.313077,12.535757,13.330619,23.673218,-57.459839,-0.459914,-2.508881,-0.021126,0.007005,-0.480639,0.876636,133,32.865930,-117.254203,-29.964939,-2455713.763704,-4767203.732518,3441462.930344,3.614061
779650878976,785476257000,1422575162054342144,785476257000,54351000,25,2,2,23,45,44,55,25,2,2,23,45,44,0,6,3,32.865939,-117.254198,-25.009000,-2455714.965110,-4767207.103445,3441466.313077,12.584188,13.337377,23.679567,-57.458744,-0.461434,-2.507080,-0.021119,0.006985,-0.480631,0.876641,133,32.865930,-117.254202,-29.723909,-2455713.799346,-4767203.957823,3441463.039223,3.588742
779675541957,785501257000,1422575162079342080,785501257000,79351000,25,2,2,23,45,44,80,25,2,2,23,45,44,0,6,3,32.865939,-117.254198,-25.009000,-2455714.965110,-4767207.103445,3441466.313077,12.584188,13.337377,23.679567,-57.458302,-0.459520,-2.508482,-0.021121,0.007006,-0.480628,0.876642,32901,32.865930,-117.254202,-29.749959,-2455713.793417,-4767203.939804,3441463.020216,3.590768
779700860902,785526256000,1422575162104341248,785526256000,104350000,25,2,2,23,45,44,105,25,2,2,23,45,44,0,6,3,32.865939,-117.254198,-25.009000,-2455714.965110,-4767207.103445,3441466.313077,12.584188,13.337377,23.679567,-57.457359,-0.456681,-2.510218,-0.021123,0.007034,-0.480620,0.876646,32901,32.865930,-117.254202,-29.776392,-2455713.787268,-4767203.921457,3441463.001110,3.592470
779725667402,785551257000,1422575162129341952,785551257000,129351000,25,2,2,23,45,44,130,25,2,2,23,45,44,0,6,3,32.865939,-117.254198,-25.009000,-2455714.965110,-4767207.103445,3441466.313077,12.584188,13.337377,23.679567,-57.457359,-0.454125,-2.511439,-0.021121,0.007059,-0.480619,0.876646,133,32.865930,-117.254203,-29.802832,-2455713.781149,-4767203.903111,3441462.981969,3.594183
779750955235,785576259000,1422575162154344192,785576259000,154353000,25,2,2,23,45,44,155,25,2,2,23,45,44,0,6,3,32.865939,-117.254198,-25.009000,-2455714.965110,-4767207.103445,3441466.313077,12.584188,13.337377,23.679567,-57.457111,-0.457151,-2.509183,-0.021117,0.007027,-0.480618,0.876648,133,32.865930,-117.254203,-29.829312,-2455713.775029,-4767203.884720,3441462.962817,3.595909
779776339402,785601257000,1422575162179342336,785601257000,179351000,25,2,2,23,45,44,180,25,2,2,23,45,44,0,6,3,32.865939,-117.254198,-25.009000,-2455714.965110,-4767207.103445,3441466.313077,12.584188,13.337377,23.679567,-57.456909,-0.457242,-2.508965,-0.021116,0.007025,-0.480617,0.876648,133,32.865930,-117.254203,-29.855849,-2455713.768930,-4767203.866282,3441462.943609,3.597648
779801839587,785626257000,1422575162204342016,785626257000,204351000,25,2,2,23,45,44,205,25,2,2,23,45,44,0,6,3,32.865939,-117.254198,-25.009000,-2455714.965110,-4767207.103445,3441466.313077,12.584188,13.337377,23.679567,-57.455666,-0.449800,-2.514493,-0.021127,0.007105,-0.480606,0.876653,32901,32.865930,-117.254203,-29.882446,-2455713.762838,-4767203.847785,3441462.924368,3.599400
779826214198,785651257000,1422575162229342208,785651257000,229351000,25,2,2,23,45,44,230,25,2,2,23,45,44,0,6,3,32.865939,-117.254198,-25.009000,-2455714.965110,-4767207.103445,3441466.313077,12.584188,13.337377,23.679567,-57.454277,-0.438815,-2.522480,-0.021142,0.007222,-0.480593,0.876659,32901,32.865930,-117.254203,-29.909098,-2455713.756723,-4767203.829250,3441462.905092,3.601163
779850643383,785676257000,1422575162254342144,785676257000,254351000,25,2,2,23,45,44,255,25,2,2,23,45,44,200,7,3,32.865939,-117.254198,-25.030000,-2455714.935110,-4767207.083445,3441466.313077,12.631142,13.344585,23.687061,-57.453812,-0.430720,-2.528003,-0.021150,0.007307,-0.480588,0.876661,133,32.865930,-117.254203,-29.735684,-2455713.810773,-4767203.964316,3441463.000492,3.578331
779880584513,785701257000,1422575162279342080,785701257000,279351000,25,2,2,23,45,44,280,25,2,2,23,45,44,200,7,3,32.865939,-117.254198,-25.030000,-2455714.935110,-4767207.083445,3441466.313077,12.631142,13.344585,23.687061,-57.454128,-0.432339,-2.527133,-0.021150,0.007291,-0.480590,0.876660,133,32.865930,-117.254203,-29.761581,-2455713.804859,-4767203.946460,3441462.981532,3.580370
779900911550,785726256000,1422575162304340992,785726256000,304350000,25,2,2,23,45,44,305,25,2,2,23,45,44,200,7,3,32.865939,-117.254198,-25.030000,-2455714.935110,-4767207.083445,3441466.313077,12.631142,13.344585,23.687061,-57.454018,-0.434338,-2.525807,-0.021149,0.007270,-0.480590,0.876660,32901,32.865930,-117.254203,-29.787828,-2455713.798790,-4767203.928320,3441462.962427,3.582083
779926205383,785751257000,1422575162329342208,785751257000,329351000,25,2,2,23,45,44,330,25,2,2,23,45,44,200,7,3,32.865939,-117.254198,-25.030000,-2455714.935110,-4767207.083445,3441466.313077,12.631142,13.344585,23.687061,-57.453213,-0.433649,-2.527815,-0.021161,0.007284,-0.480584,0.876663,32901,32.865930,-117.254203,-29.814093,-2455713.792776,-4767203.910162,3441462.943276,3.583808
779950783142,785776256000,1422575162354341376,785776256000,354350000,25,2,2,23,45,44,355,25,2,2,23,45,44,200,7,3,32.865939,-117.254198,-25.030000,-2455714.935110,-4767207.083445,3441466.313077,12.631142,13.344585,23.687061,-57.452541,-0.426422,-2.533006,-0.021171,0.007361,-0.480577,0.876666,133,32.865930,-117.254203,-29.840423,-2455713.786746,-4767203.891961,3441462.924075,3.585546
779975570920,785801257000,1422575162379342080,785801257000,379351000,25,2,2,23,45,44,380,25,2,2,23,45,44,200,7,3,32.865939,-117.254198,-25.030000,-2455714.935110,-4767207.083445,3441466.313077,12.631142,13.344585,23.687061,-57.451729,-0.421518,-2.536545,-0.021177,0.007413,-0.480570,0.876669,133,32.865930,-117.254203,-29.866781,-2455713.780742,-4767203.873713,3441462.904867,3.587295
780001195661,785826257000,1422575162404342272,785826257000,404351000,25,2,2,23,45,44,405,25,2,2,23,45,44,200,7,3,32.865939,-117.254198,-25.030000,-2455714.935110,-4767207.083445,3441466.313077,12.631142,13.344585,23.687061,-57.451019,-0.418330,-2.538427,-0.021178,0.007445,-0.480564,0.876672,32901,32.865930,-117.254203,-29.893211,-2455713.774692,-4767203.855455,3441462.885574,3.589057
780026604902,785851257000,1422575162429342208,785851257000,429351000,25,2,2,23,45,44,430,25,2,2,23,45,44,200,7,3,32.865939,-117.254198,-25.030000,-2455714.935110,-4767207.083445,3441466.313077,12.631142,13.344585,23.687061,-57.450882,-0.414789,-2.540586,-0.021180,0.007481,-0.480562,0.876673,32901,32.865929,-117.254203,-29.919676,-2455713.768648,-4767203.837162,3441462.866262,3.590832
780050872846,785876257000,1422575162454342144,785876257000,454351000,25,2,2,23,45,44,455,25,2,2,23,45,44,400,7,3,32.865939,-117.254198,-25.096000,-2455714.895110,-4767207.013445,3441466.323077,12.675558,13.352117,23.692467,-57.451847,-0.415129,-2.541483,-0.021188,0.007483,-0.480569,0.876669,133,32.865930,-117.254203,-29.745607,-2455713.827924,-4767203.967791,3441462.965268,3.568293
780075446920,785901257000,1422575162479342336,785901257000,479351000,25,2,2,23,45,44,480,25,2,2,23,45,44,400,7,3,32.865939,-117.254198,-25.096000,-2455714.895110,-4767207.013445,3441466.323077,12.675558,13.352117,23.692467,-57.451397,-0.418314,-2.540313,-0.021192,0.007453,-0.480567,0.876670,133,32.865929,-117.254203,-29.771492,-2455713.822067,-4767203.949979,3441462.946230,3.570349
780101208031,785926257000,1422575162504342016,785926257000,504351000,25,2,2,23,45,44,505,25,2,2,23,45,44,400,7,3,32.865939,-117.254198,-25.096000,-2455714.895110,-4767207.013445,3441466.323077,12.675558,13.352117,23.692467,-57.450672,-0.416126,-2.540952,-0.021188,0.007472,-0.480561,0.876674,32901,32.865929,-117.254203,-29.797521,-2455713.816254,-4767203.932032,3441462.927081,3.572075
780125609383,785951257000,1422575162529342208,785951257000,529351000,25,2,2,23,45,44,530,25,2,2,23,45,44,400,7,3,32.865939,-117.254198,-25.096000,-2455714.895110,-4767207.013445,3441466.323077,12.675558,13.352117,23.692467,-57.449802,-0.411350,-2.545826,-0.021206,0.007529,-0.480553,0.876677,32901,32.865929,-117.254203,-29.823655,-2455713.810326,-4767203.913986,3441462.907954,3.573812
780150384642,785976257000,1422575162554342144,785976257000,554351000,25,2,2,23,45,44,555,25,2,2,23,45,44,400,7,3,32.865939,-117.254198,-25.096000,-2455714.895110,-4767207.013445,3441466.323077,12.675558,13.352117,23.692467,-57.448505,-0.402002,-2.553079,-0.021222,0.007631,-0.480541,0.876682,133,32.865929,-117.254203,-29.849827,-2455713.804420,-4767203.895922,3441462.888768,3.575563
780175802087,786001257000,1422575162579342080,786001257000,579351000,25,2,2,23,45,44,580,25,2,2,23,45,44,400,7,3,32.865939,-117.254198,-25.096000,-2455714.895110,-4767207.013445,3441466.323077,12.675558,13.352117,23.692467,-57.448921,-0.391867,-2.561546,-0.021244,0.007744,-0.480542,0.876680,133,32.865929,-117.254203,-29.876047,-2455713.798501,-4767203.877823,3441462.869551,3.577326
780200566124,786026257000,1422575162604342272,786026257000,604351000,25,2,2,23,45,44,605,25,2,2,23,45,44,400,7,3,32.865939,-117.254198,-25.096000,-2455714.895110,-4767207.013445,3441466.323077,12.675558,13.352117,23.692467,-57.451332,-0.381670,-2.570778,-0.021272,0.007861,-0.480558,0.876669,133,32.865929,-117.254203,-29.902400,-2455713.793513,-4767203.859190,3441462.850162,3.579099
780225598865,786051257000,1422575162629341952,786051257000,629351000,25,2,2,23,45,44,630,25,2,2,23,45,44,400,7,3,32.865939,-117.254198,-25.096000,-2455714.895110,-4767207.013445,3441466.323077,12.675558,13.352117,23.692467,-57.452400,-0.376832,-2.574941,-0.021283,0.007916,-0.480565,0.876665,32901,32.865929,-117.254203,-29.928680,-2455713.787709,-4767203.841031,3441462.830835,3.580886
780251105865,786076257000,1422575162654342144,786076257000,654351000,25,2,2,23,45,44,655,25,2,2,23,45,44,600,7,3,32.865940,-117.254198,-25.164000,-2455714.865110,-4767206.953445,3441466.313077,12.716793,13.359648,23.694382,-57.452400,-0.378050,-2.575105,-0.021290,0.007907,-0.480566,0.876665,32901,32.865929,-117.254203,-29.784030,-2455713.856668,-4767203.962723,3441462.881065,3.559683
780275526846,786101257000,1422575162679342336,786101257000,679351000,25,2,2,23,45,44,680,25,2,2,23,45,44,600,7,3,32.865940,-117.254198,-25.164000,-2455714.865110,-4767206.953445,3441466.313077,12.716793,13.359648,23.694382,-57.451996,-0.376352,-2.576598,-0.021294,0.007926,-0.480562,0.876666,133,32.865929,-117.254203,-29.809870,-2455713.851116,-4767203.945087,3441462.861651,3.561774
780300563439,786126257000,1422575162704342016,786126257000,704351000,25,2,2,23,45,44,705,25,2,2,23,45,44,600,7,3,32.865940,-117.254198,-25.164000,-2455714.865110,-4767206.953445,3441466.313077,12.716793,13.359648,23.694382,-57.452312,-0.372706,-2.579901,-0.021304,0.007968,-0.480564,0.876665,133,32.865929,-117.254203,-29.835891,-2455713.845509,-4767203.927262,3441462.842202,3.563529
780325673124,786151257000,1422575162729342208,786151257000,729351000,25,2,2,23,45,44,730,25,2,2,23,45,44,600,7,3,32.865940,-117.254198,-25.164000,-2455714.865110,-4767206.953445,3441466.313077,12.716793,13.359648,23.694382,-57.451702,-0.370690,-2.582199,-0.021313,0.007993,-0.480559,0.876667,32901,32.865929,-117.254203,-29.861958,-2455713.839888,-4767203.909424,3441462.822696,3.565296
780350968624,786176257000,1422575162754342144,786176257000,754351000,25,2,2,23,45,44,755,25,2,2,23,45,44,600,7,3,32.865940,-117.254198,-25.164000,-2455714.865110,-4767206.953445,3441466.313077,12.716793,13.359648,23.694382,-57.451366,-0.370845,-2.582380,-0.021315,0.007993,-0.480556,0.876669,32901,32.865929,-117.254203,-29.888064,-2455713.834283,-4767203.891524,3441462.803193,3.567076
780375378439,786201257000,1422575162779342080,786201257000,779351000,25,2,2,23,45,44,780,25,2,2,23,45,44,600,7,3,32.865940,-117.254198,-25.164000,-2455714.865110,-4767206.953445,3441466.313077,12.716793,13.359648,23.694382,-57.450569,-0.372148,-2.582148,-0.021319,0.007982,-0.480550,0.876672,133,32.865929,-117.254203,-29.914179,-2455713.828751,-4767203.873637,3441462.783602,3.568868
780400240013,786226256000,1422575162804340992,786226256000,804350000,25,2,2,23,45,44,805,25,2,2,23,45,44,600,7,3,32.865940,-117.254198,-25.164000,-2455714.865110,-4767206.953445,3441466.313077,12.716793,13.359648,23.694382,-57.450520,-0.369830,-2.583858,-0.021322,0.008007,-0.480549,0.876672,133,32.865928,-117.254203,-29.940346,-2455713.823094,-4767203.855758,3441462.763993,3.570673
780425964827,786251257000,1422575162829342208,786251257000,829351000,25,2,2,23,45,44,830,25,2,2,23,45,44,600,7,3,32.865940,-117.254198,-25.164000,-2455714.865110,-4767206.953445,3441466.313077,12.716793,13.359648,23.694382,-57.450127,-0.372788,-2.581725,-0.021319,0.007975,-0.480547,0.876674,32901,32.865928,-117.254203,-29.966706,-2455713.817390,-4767203.837701,3441462.744308,3.572490
780450619031,786276257000,1422575162854342144,786276257000,854351000,25,2,2,23,45,44,855,25,2,2,23,45,44,800,7,3,32.865940,-117.254198,-25.233000,-2455714.825110,-4767206.883445,3441466.303077,12.756618,13.367251,23.695984,-57.449810,-0.376091,-2.580284,-0.021321,0.007944,-0.480545,0.876675,32901,32.865928,-117.254203,-29.816863,-2455713.885821,-4767203.945802,3441462.823182,3.551138
780475548068,786301257000,1422575162879342080,786301257000,879351000,25,2,2,23,45,44,880,25,2,2,23,45,44,800,7,3,32.865940,-117.254198,-25.233000,-2455714.825110,-4767206.883445,3441466.303077,12.756618,13.367251,23.695984,-57.448719,-0.373407,-2.582532,-0.021327,0.007973,-0.480536,0.876679,133,32.865928,-117.254203,-29.842537,-2455713.880579,-4767203.928249,3441462.803740,3.553260
780500250605,786326257000,1422575162904342272,786326257000,904351000,25,2,2,23,45,44,905,25,2,2,23,45,44,800,7,3,32.865940,-117.254198,-25.233000,-2455714.825110,-4767206.883445,3441466.303077,12.756618,13.367251,23.695984,-57.447346,-0.368582,-2.585732,-0.021332,0.008023,-0.480525,0.876685,133,32.865928,-117.254203,-29.868447,-2455713.875265,-4767203.910532,3441462.784140,3.555041
780525908253,786351257000,1422575162929342208,786351257000,929351000,25,2,2,23,45,44,930,25,2,2,23,45,44,800,7,3,32.865940,-117.254198,-25.233000,-2455714.825110,-4767206.883445,3441466.303077,12.756618,13.367251,23.695984,-57.447132,-0.368235,-2.585847,-0.021331,0.008026,-0.480523,0.876686,32901,32.865928,-117.254203,-29.894469,-2455713.869856,-4767203.892716,3441462.764535,3.556835
780550811827,786376257000,1422575162954342144,786376257000,954351000,25,2,2,23,45,44,955,25,2,2,23,45,44,800,7,3,32.865940,-117.254198,-25.233000,-2455714.825110,-4767206.883445,3441466.303077,12.756618,13.367251,23.695984,-57.446732,-0.368453,-2.584632,-0.021323,0.008020,-0.480520,0.876688,32901,32.865928,-117.254203,-29.920494,-2455713.864516,-4767203.874925,3441462.744844,3.558641
780575510698,786401256000,1422575162979341312,786401256000,979350000,25,2,2,23,45,44,980,25,2,2,23,45,44,800,7,3,32.865940,-117.254198,-25.233000,-2455714.825110,-4767206.883445,3441466.303077,12.756618,13.367251,23.695984,-57.445759,-0.365601,-2.587177,-0.021330,0.008052,-0.480512,0.876692,133,32.865928,-117.254203,-29.946571,-2455713.859188,-4767203.857024,3441462.725198,3.560460
780600338920,786426257000,1422575163004342016,786426257000,4353000,25,2,2,23,45,45,5,25,2,2,23,45,44,800,7,3,32.865940,-117.254198,-25.233000,-2455714.825110,-4767206.883445,3441466.303077,12.756618,13.367251,23.695984,-57.445335,-0.365642,-2.587013,-0.021329,0.008051,-0.480509,0.876694,133,32.865928,-117.254204,-29.972855,-2455713.853712,-4767203.839039,3441462.705392,3.561924
780624917512,786451257000,1422575163029342208,786451257000,29353000,25,2,2,23,45,45,30,25,2,2,23,45,44,800,7,3,32.865940,-117.254198,-25.233000,-2455714.825110,-4767206.883445,3441466.303077,12.756618,13.367251,23.695984,-57.444649,-0.365302,-2.586782,-0.021326,0.008052,-0.480504,0.876697,32901,32.865928,-117.254204,-29.998918,-2455713.848388,-4767203.821223,3441462.685653,3.564135
780649887124,786476257000,1422575163054344192,786476257000,54353000,25,2,2,23,45,45,55,25,2,2,23,45,45,0,7,3,32.865940,-117.254198,-25.289000,-2455714.815110,-4767206.823445,3441466.293077,12.794168,13.374891,23.695393,-57.443542,-0.360793,-2.589074,-0.021325,0.008096,-0.480494,0.876701,32901,32.865928,-117.254204,-29.866135,-2455713.921674,-4767203.926466,3441462.733581,3.543504
780675210364,786501257000,1422575163079344128,786501257000,79353000,25,2,2,23,45,45,80,25,2,2,23,45,45,0,7,3,32.865940,-117.254198,-25.289000,-2455714.815110,-4767206.823445,3441466.293077,12.794168,13.374891,23.695393,-57.441833,-0.354763,-2.593941,-0.021337,0.008162,-0.480480,0.876708,32901,32.865928,-117.254204,-29.891815,-2455713.916733,-4767203.909016,3441462.713773,3.545667
780700538124,786526257000,1422575163104344064,786526257000,104353000,25,2,2,23,45,45,105,25,2,2,23,45,45,0,7,3,32.865940,-117.254198,-25.289000,-2455714.815110,-4767206.823445,3441466.293077,12.794168,13.374891,23.695393,-57.442162,-0.346462,-2.601322,-0.021359,0.008257,-0.480480,0.876707,133,32.865928,-117.254204,-29.917754,-2455713.911708,-4767203.891335,3441462.693864,3.547483
780725328272,786551257000,1422575163129344000,786551257000,129353000,25,2,2,23,45,45,130,25,2,2,23,45,45,0,7,3,32.865940,-117.254198,-25.289000,-2455714.815110,-4767206.823445,3441466.293077,12.794168,13.374891,23.695393,-57.441498,-0.341986,-2.603535,-0.021357,0.008300,-0.480474,0.876709,133,32.865928,-117.254204,-29.943663,-2455713.906654,-4767203.873727,3441462.673930,3.549312
780749900327,786576257000,1422575163154344192,786576257000,154353000,25,2,2,23,45,45,155,25,2,2,23,45,45,0,7,3,32.865940,-117.254198,-25.289000,-2455714.815110,-4767206.823445,3441466.293077,12.794168,13.374891,23.695393,-57.441021,-0.346064,-2.600271,-0.021349,0.008255,-0.480472,0.876712,32901,32.865927,-117.254204,-29.969755,-2455713.901627,-4767203.855920,3441462.653916,3.551153
780774866586,786601257000,1422575163179344128,786601257000,179353000,25,2,2,23,45,45,180,25,2,2,23,45,45,0,7,3,32.865940,-117.254198,-25.289000,-2455714.815110,-4767206.823445,3441466.293077,12.794168,13.374891,23.695393,-57.440182,-0.347570,-2.600236,-0.021355,0.008244,-0.480466,0.876715,32901,32.865927,-117.254204,-29.995830,-2455713.896530,-4767203.838166,3441462.633908,3.553007
780800842160,786626257000,1422575163204344064,786626257000,204353000,25,2,2,23,45,45,205,25,2,2,23,45,45,0,7,3,32.865940,-117.254198,-25.289000,-2455714.815110,-4767206.823445,3441466.293077,12.794168,13.374891,23.695393,-57.439682,-0.352761,-2.596431,-0.021348,0.008188,-0.480463,0.876717,133,32.865927,-117.254204,-30.021938,-2455713.891460,-4767203.820392,3441462.613847,3.554874
780825244383,786651257000,1422575163229344256,786651257000,229353000,25,2,2,23,45,45,230,25,2,2,23,45,45,0,7,3,32.865940,-117.254198,-25.289000,-2455714.815110,-4767206.823445,3441466.293077,12.794168,13.374891,23.695393,-57.439163,-0.358148,-2.592500,-0.021340,0.008130,-0.480460,0.876719,133,32.865927,-117.254204,-30.048165,-2455713.887470,-4767203.802021,3441462.593624,3.556751
780850636253,786676257000,1422575163254343936,786676257000,254353000,25,2,2,23,45,45,255,25,2,2,23,45,45,200,7,3,32.865941,-117.254198,-25.399000,-2455714.745110,-4767206.713445,3441466.283077,12.832281,13.382317,23.697124,-57.438534,-0.363739,-2.588445,-0.021333,0.008070,-0.480456,0.876722,49285,32.865927,-117.254204,-29.874913,-2455713.941434,-4767203.935489,3441462.690985,3.534601
780876569975,786701259000,1422575163279345920,786701259000,279355000,25,2,2,23,45,45,280,25,2,2,23,45,45,200,7,3,32.865941,-117.254198,-25.399000,-2455714.745110,-4767206.713445,3441466.283077,12.832281,13.382317,23.697124,-57.437031,-0.357449,-2.592690,-0.021339,0.008136,-0.480444,0.876728,49285,32.865927,-117.254204,-29.900399,-2455713.936665,-4767203.918209,3441462.671178,3.536780
780900293605,786726257000,1422575163304344064,786726257000,304353000,25,2,2,23,45,45,305,25,2,2,23,45,45,200,7,3,32.865941,-117.254198,-25.399000,-2455714.745110,-4767206.713445,3441466.283077,12.832281,13.382317,23.697124,-57.435543,-0.354890,-2.595190,-0.021348,0.008166,-0.480432,0.876734,30853,32.865927,-117.254204,-29.926109,-2455713.931746,-4767203.900764,3441462.651291,3.538610
780925740642,786751259000,1422575163329346304,786751259000,329355000,25,2,2,23,45,45,330,25,2,2,23,45,45,200,7,3,32.865941,-117.254198,-25.399000,-2455714.745110,-4767206.713445,3441466.283077,12.832281,13.382317,23.697124,-57.434444,-0.356389,-2.594108,-0.021346,0.008149,-0.480423,0.876739,30853,32.865927,-117.254204,-29.951951,-2455713.926928,-4767203.883215,3441462.631233,3.540453
780950711809,786776257000,1422575163354344192,786776257000,354353000,25,2,2,23,45,45,355,25,2,2,23,45,45,200,7,3,32.865941,-117.254198,-25.399000,-2455714.745110,-4767206.713445,3441466.283077,12.832281,13.382317,23.697124,-57.433861,-0.355199,-2.595329,-0.021350,0.008163,-0.480419,0.876741,39045,32.865927,-117.254204,-29.977812,-2455713.922008,-4767203.865643,3441462.611244,3.542308
780976673734,786801260000,1422575163379347200,786801260000,379356000,25,2,2,23,45,45,380,25,2,2,23,45,45,200,7,3,32.865941,-117.254198,-25.399000,-2455714.745110,-4767206.713445,3441466.283077,12.832281,13.382317,23.697124,-57.432716,-0.356262,-2.594686,-0.021350,0.008152,-0.480410,0.876746,39045,32.865927,-117.254204,-30.003698,-2455713.917099,-4767203.848079,3441462.591191,3.544175
781000011753,786826257000,1422575163404344064,786826257000,404353000,25,2,2,23,45,45,405,25,2,2,23,45,45,200,7,3,32.865941,-117.254198,-25.399000,-2455714.745110,-4767206.713445,3441466.283077,12.832281,13.382317,23.697124,-57.431740,-0.357615,-2.593326,-0.021345,0.008136,-0.480403,0.876750,133,32.865927,-117.254204,-30.029580,-2455713.912305,-4767203.830523,3441462.571051,3.546055
781026144160,786851257000,1422575163429344256,786851257000,429353000,25,2,2,23,45,45,430,25,2,2,23,45,45,200,7,3,32.865941,-117.254198,-25.399000,-2455714.745110,-4767206.713445,3441466.283077,12.832281,13.382317,23.697124,-57.429867,-0.354699,-2.596494,-0.021357,0.008171,-0.480388,0.876758,133,32.865927,-117.254204,-30.055649,-2455713.907385,-4767203.812786,3441462.550906,3.547948
781050915253,786876257000,1422575163454343936,786876257000,454353000,25,2,2,23,45,45,455,25,2,2,23,45,45,400,7,3,32.865941,-117.254198,-25.512000,-2455714.665110,-4767206.603445,3441466.283077,12.862667,13.386395,23.684135,-57.428448,-0.347252,-2.602009,-0.021368,0.008251,-0.480376,0.876764,32901,32.865927,-117.254203,-29.834899,-2455713.930920,-4767203.997237,3441462.687209,3.523717
781075882827,786901260000,1422575163479346944,786901260000,479356000,25,2,2,23,45,45,480,25,2,2,23,45,45,400,7,3,32.865941,-117.254198,-25.512000,-2455714.665110,-4767206.603445,3441466.283077,12.862667,13.386395,23.684135,-57.427040,-0.351587,-2.599082,-0.021364,0.008206,-0.480366,0.876770,32901,32.865927,-117.254204,-29.859975,-2455713.925833,-4767203.980524,3441462.667602,3.525879
781101454271,786926257000,1422575163504344064,786926257000,504353000,25,2,2,23,45,45,505,25,2,2,23,45,45,400,7,3,32.865941,-117.254198,-25.512000,-2455714.665110,-4767206.603445,3441466.283077,12.862667,13.386395,23.684135,-57.426792,-0.358918,-2.594475,-0.021360,0.008130,-0.480365,0.876771,133,32.865927,-117.254204,-29.885355,-2455713.920752,-4767203.963542,3441462.647802,3.527693
781126507531,786951257000,1422575163529344000,786951257000,529353000,25,2,2,23,45,45,530,25,2,2,23,45,45,400,7,3,32.865941,-117.254198,-25.512000,-2455714.665110,-4767206.603445,3441466.283077,12.862667,13.386395,23.684135,-57.426559,-0.360203,-2.594090,-0.021362,0.008119,-0.480364,0.876772,133,32.865927,-117.254204,-29.910795,-2455713.915681,-4767203.946515,3441462.627946,3.529520
781151031234,786976260000,1422575163554347008,786976260000,554356000,25,2,2,23,45,45,555,25,2,2,23,45,45,400,7,3,32.865941,-117.254198,-25.512000,-2455714.665110,-4767206.603445,3441466.283077,12.862667,13.386395,23.684135,-57.425571,-0.354599,-2.597943,-0.021368,0.008178,-0.480355,0.876776,133,32.865927,-117.254204,-29.936289,-2455713.910621,-4767203.929428,3441462.608065,3.531358
781176045345,787001257000,1422575163579344128,787001257000,579353000,25,2,2,23,45,45,580,25,2,2,23,45,45,400,7,3,32.865941,-117.254198,-25.512000,-2455714.665110,-4767206.603445,3441466.283077,12.862667,13.386395,23.684135,-57.424900,-0.353992,-2.598540,-0.021370,0.008185,-0.480350,0.876779,32901,32.865927,-117.254204,-29.961780,-2455713.905587,-4767203.912335,3441462.588179,3.533210
781201233512,787026257000,1422575163604344064,787026257000,604353000,25,2,2,23,45,45,605,25,2,2,23,45,45,400,7,3,32.865941,-117.254198,-25.512000,-2455714.665110,-4767206.603445,3441466.283077,12.862667,13.386395,23.684135,-57.424408,-0.352743,-2.599425,-0.021372,0.008198,-0.480346,0.876781,32901,32.865927,-117.254204,-29.987371,-2455713.900487,-4767203.895190,3441462.568229,3.535073
781225788012,787051257000,1422575163629344000,787051257000,629353000,25,2,2,23,45,45,630,25,2,2,23,45,45,400,7,3,32.865941,-117.254198,-25.512000,-2455714.665110,-4767206.603445,3441466.283077,12.862667,13.386395,23.684135,-57.423706,-0.353658,-2.599203,-0.021374,0.008190,-0.480341,0.876783,133,32.865927,-117.254204,-30.013009,-2455713.895312,-4767203.878027,3441462.548267,3.536949
781250644568,787076257000,1422575163654344192,787076257000,654353000,25,2,2,23,45,45,655,25,2,2,23,45,45,600,7,3,32.865942,-117.254197,-25.572000,-2455714.615110,-4767206.553445,3441466.283077,12.890674,13.388097,23.671967,-57.422359,-0.353717,-2.599220,-0.021374,0.008189,-0.480330,0.876789,133,32.865927,-117.254204,-29.849688,-2455713.947451,-4767203.996756,3441462.648904,3.515396
781275959771,787101257000,1422575163679344128,787101257000,679353000,25,2,2,23,45,45,680,25,2,2,23,45,45,600,7,3,32.865942,-117.254197,-25.572000,-2455714.615110,-4767206.553445,3441466.283077,12.890674,13.388097,23.671967,-57.421391,-0.357585,-2.596933,-0.021373,0.008150,-0.480324,0.876793,32901,32.865927,-117.254204,-29.874690,-2455713.942513,-4767203.980047,3441462.629321,3.517578
781301104919,787126256000,1422575163704343040,787126256000,704352000,25,2,2,23,45,45,705,25,2,2,23,45,45,600,7,3,32.865942,-117.254197,-25.572000,-2455714.615110,-4767206.553445,3441466.283077,12.890674,13.388097,23.671967,-57.420406,-0.354467,-2.599632,-0.021381,0.008185,-0.480315,0.876797,32901,32.865927,-117.254204,-29.900025,-2455713.937536,-4767203.963131,3441462.609439,3.519409
781326328382,787151257000,1422575163729344256,787151257000,729353000,25,2,2,23,45,45,730,25,2,2,23,45,45,600,7,3,32.865942,-117.254197,-25.572000,-2455714.615110,-4767206.553445,3441466.283077,12.890674,13.388097,23.671967,-57.419136,-0.352995,-2.600669,-0.021383,0.008200,-0.480305,0.876802,133,32.865927,-117.254204,-29.925298,-2455713.932618,-4767203.946255,3441462.589575,3.521252
781350588531,787176257000,1422575163754343936,787176257000,754353000,25,2,2,23,45,45,755,25,2,2,23,45,45,600,7,3,32.865942,-117.254197,-25.572000,-2455714.615110,-4767206.553445,3441466.283077,12.890674,13.388097,23.671967,-57.418556,-0.354760,-2.599013,-0.021377,0.008179,-0.480301,0.876805,133,32.865926,-117.254204,-29.950711,-2455713.927546,-4767203.929282,3441462.569694,3.523107
781375890568,787201256000,1422575163779343104,787201256000,779352000,25,2,2,23,45,45,780,25,2,2,23,45,45,600,7,3,32.865942,-117.254197,-25.572000,-2455714.615110,-4767206.553445,3441466.283077,12.890674,13.388097,23.671967,-57.418015,-0.358102,-2.596314,-0.021371,0.008142,-0.480298,0.876807,32901,32.865926,-117.254204,-29.976132,-2455713.922538,-4767203.912304,3441462.549760,3.524975
781401392382,787226257000,1422575163804344064,787226257000,804353000,25,2,2,23,45,45,805,25,2,2,23,45,45,600,7,3,32.865942,-117.254197,-25.572000,-2455714.615110,-4767206.553445,3441466.283077,12.890674,13.388097,23.671967,-57.417068,-0.359642,-2.595139,-0.021368,0.008126,-0.480291,0.876811,32901,32.865926,-117.254204,-30.001549,-2455713.917527,-4767203.895339,3441462.529819,3.526854
781426024993,787251257000,1422575163829344000,787251257000,829353000,25,2,2,23,45,45,830,25,2,2,23,45,45,600,7,3,32.865942,-117.254197,-25.572000,-2455714.615110,-4767206.553445,3441466.283077,12.890674,13.388097,23.671967,-57.416801,-0.358475,-2.595419,-0.021366,0.008136,-0.480289,0.876812,133,32.865926,-117.254204,-30.027145,-2455713.912575,-4767203.878195,3441462.509751,3.528746
781450717012,787276257000,1422575163854344192,787276257000,854353000,25,2,2,23,45,45,855,25,2,2,23,45,45,800,7,3,32.865942,-117.254197,-25.644000,-2455714.565111,-4767206.483445,3441466.283077,12.917898,13.389414,23.660093,-57.415928,-0.356797,-2.596355,-0.021366,0.008152,-0.480282,0.876816,133,32.865926,-117.254204,-29.889813,-2455713.962686,-4767203.980638,3441462.586342,3.508039
781475637568,787301257000,1422575163879343872,787301257000,879353000,25,2,2,23,45,45,880,25,2,2,23,45,45,800,7,3,32.865942,-117.254197,-25.644000,-2455714.565111,-4767206.483445,3441466.283077,12.917898,13.389414,23.660093,-57.414661,-0.357658,-2.595486,-0.021363,0.008142,-0.480272,0.876822,32901,32.865926,-117.254204,-29.914749,-2455713.957920,-4767203.964024,3441462.566630,3.510252
781500280864,787326257000,1422575163904344064,787326257000,904353000,25,2,2,23,45,45,905,25,2,2,23,45,45,800,7,3,32.865942,-117.254197,-25.644000,-2455714.565111,-4767206.483445,3441466.283077,12.917898,13.389414,23.660093,-57.413425,-0.354154,-2.597655,-0.021365,0.008177,-0.480262,0.876827,32901,32.865926,-117.254204,-29.940062,-2455713.953061,-4767203.947185,3441462.546599,3.512109
781525511956,787351257000,1422575163929344256,787351257000,929353000,25,2,2,23,45,45,930,25,2,2,23,45,45,800,7,3,32.865942,-117.254197,-25.644000,-2455714.565111,-4767206.483445,3441466.283077,12.917898,13.389414,23.660093,-57.412991,-0.352042,-2.599720,-0.021372,0.008202,-0.480258,0.876828,32901,32.865926,-117.254204,-29.965479,-2455713.948144,-4767203.930259,3441462.526535,3.513603
781550453253,787376257000,1422575163954343936,787376257000,954353000,25,2,2,23,45,45,955,25,2,2,23,45,45,800,7,3,32.865942,-117.254197,-25.644000,-2455714.565111,-4767206.483445,3441466.283077,12.917898,13.389414,23.660093,-57.411842,-0.354725,-2.598264,-0.021372,0.008175,-0.480250,0.876833,133,32.865926,-117.254204,-29.990683,-2455713.943310,-4767203.913500,3441462.506578,3.515860
