systemTimeStamp,timeStartup,timeGps,timeSyncIn,timeGpsPps,utcYear,utcMonth,utcDay,utcHour,utcMinute,utcSecond,utcFracsec,imuStatus,temperature,pressure,magX,magY,magZ,accelX,accelY,accelZ,gps1UtcYear,gps1UtcMonth,gps1UtcDay,gps1UtcHour,gps1UtcMinute,gps1UtcSecond,gps1UtcFracsec,gnss1NumSats,gnss1Fix,gnss1PosLat,gnss1PosLon,gnss1PosAlt,gnss1PosEcefX,gnss1PosEcefY,gnss1PosEcefY,gnss1PosUncertaintyN,gnss1PosUncertaintyE,gnss1PosUncertaintyD,yaw,pitch,roll,quatX,quatY,quatZ,quatW,insStatus,lat,lon,alt,posEcefX,posEcefY,posEcefZ,posU
300406233133,306226256000,1420932772385405440,306226256000,385416000,25,1,14,23,32,38,386,16,29.100002,102.129005,0.699337,1.786353,3.805276,-2.639345,-0.775702,-10.110201,25,1,14,23,32,34,200,7,3,32.865579,-117.254147,-17.719000,-2455723.385110,-4767233.973444,3441436.803078,4.969081,4.617523,9.963579,43.118694,-10.203294,3.599236,-0.061751,0.071167,-0.368426,-0.924870,32901,32.865580,-117.254147,-20.703624,-2455722.311698,-4767231.810387,3441435.303610,1.807113
300432593948,306251257000,1420932772410406656,306251257000,410417000,25,1,14,23,32,38,411,16,29.090000,102.124008,0.695175,1.787503,3.805735,-2.448349,-0.622364,-10.055049,25,1,14,23,32,34,200,7,3,32.865579,-117.254147,-17.719000,-2455723.385110,-4767233.973444,3441436.803078,4.969081,4.617523,9.963579,42.692108,-9.991518,3.878443,-0.063078,0.068791,-0.365154,-0.926257,32901,32.865580,-117.254147,-20.725777,-2455722.312789,-4767231.799692,3441435.276730,1.808241
300456237096,306276257000,1420932772435406592,306276257000,435417000,25,1,14,23,32,38,436,0,29.090000,102.124008,0.692625,1.786739,3.804799,-2.016802,-0.496278,-9.781713,25,1,14,23,32,34,200,7,3,32.865579,-117.254147,-17.719000,-2455723.385110,-4767233.973444,3441436.803078,4.969081,4.617523,9.963579,42.212166,-9.535559,4.160724,-0.063659,0.064464,-0.361428,-0.927988,133,32.865580,-117.254147,-20.747625,-2455722.313675,-4767231.789235,3441435.250230,1.809382
300482535133,306301257000,1420932772460406528,306301257000,460417000,25,1,14,23,32,38,461,16,29.100002,102.129005,0.688683,1.785713,3.803631,-1.371419,-0.449211,-9.578518,25,1,14,23,32,34,400,7,3,32.865578,-117.254147,-17.678000,-2455723.485110,-4767234.033444,3441436.723078,4.966423,4.673760,9.970161,41.682442,-8.918978,4.438540,-0.063723,0.058877,-0.357250,-0.929971,133,32.865580,-117.254147,-20.663670,-2455722.355581,-4767231.848412,3441435.293809,1.790773
300507184429,306326256000,1420932772485405696,306326256000,485416000,25,1,14,23,32,38,486,16,29.090000,102.137001,0.683599,1.785377,3.800550,-1.016867,-0.483805,-9.385170,25,1,14,23,32,34,400,7,3,32.865578,-117.254147,-17.678000,-2455723.485110,-4767234.033444,3441436.723078,4.966423,4.673760,9.970161,41.096760,-8.272900,4.735525,-0.063881,0.053022,-0.352575,-0.932094,32901,32.865579,-117.254147,-20.685140,-2455722.356659,-4767231.837921,3441435.267917,1.791848
300532630244,306351256000,1420932772510405632,306351256000,510416000,25,1,14,23,32,38,511,16,29.105000,102.129005,0.678266,1.784090,3.799150,-0.890280,-0.675163,-9.307739,25,1,14,23,32,34,400,7,3,32.865578,-117.254147,-17.678000,-2455723.485110,-4767234.033444,3441436.723078,4.966423,4.673760,9.970161,40.460682,-7.666404,5.060521,-0.064426,0.047435,-0.347454,-0.934278,32901,32.865579,-117.254147,-20.706831,-2455722.357906,-4767231.827179,3441435.241842,1.792937
300556429670,306376257000,1420932772535406592,306376257000,535417000,25,1,14,23,32,38,536,0,29.090000,102.137001,0.674553,1.781850,3.796338,-0.838131,-0.677177,-9.289400,25,1,14,23,32,34,400,7,3,32.865578,-117.254147,-17.678000,-2455723.485110,-4767234.033444,3441436.723078,4.966423,4.673760,9.970161,39.789078,-7.114954,5.405552,-0.065347,0.042266,-0.342008,-0.936469,133,32.865579,-117.254147,-20.728806,-2455722.359273,-4767231.816184,3441435.215508,1.794040
300582132318,306401257000,1420932772560406784,306401257000,560417000,25,1,14,23,32,38,561,16,29.090000,102.124008,0.671332,1.782747,3.793710,-0.953732,-0.791690,-9.198081,25,1,14,23,32,34,400,7,3,32.865578,-117.254147,-17.678000,-2455723.485110,-4767234.033444,3441436.723078,4.966423,4.673760,9.970161,39.080704,-6.597373,5.788347,-0.066726,0.037298,-0.336229,-0.938673,133,32.865579,-117.254148,-20.751075,-2455722.360728,-4767231.804915,3441435.188946,1.795159
300607826244,306426257000,1420932772585406464,306426257000,585417000,25,1,14,23,32,38,586,16,29.100002,102.129005,0.666463,1.781218,3.791600,-0.853572,-0.946867,-9.236982,25,1,14,23,32,34,400,7,3,32.865578,-117.254147,-17.678000,-2455723.485110,-4767234.033444,3441436.723078,4.966423,4.673760,9.970161,38.348053,-6.100615,6.194391,-0.068412,0.032467,-0.330210,-0.940865,32901,32.865579,-117.254148,-20.773651,-2455722.362154,-4767231.793378,3441435.162208,1.796292
300632136410,306451257000,1420932772610406656,306451257000,610417000,25,1,14,23,32,38,611,16,29.090000,102.137001,0.660191,1.779694,3.792106,-0.805032,-0.896168,-9.015940,25,1,14,23,32,34,400,7,3,32.865578,-117.254147,-17.678000,-2455723.485110,-4767234.033444,3441436.723078,4.966423,4.673760,9.970161,37.583443,-5.646096,6.608790,-0.070341,0.028004,-0.323891,-0.943060,32901,32.865579,-117.254148,-20.796545,-2455722.363538,-4767231.781608,3441435.135234,1.797439
300656845966,306476257000,1420932772635406848,306476257000,635417000,25,1,14,23,32,38,636,0,29.089996,102.137001,0.657426,1.778412,3.787138,-0.613829,-0.816271,-8.982201,25,1,14,23,32,34,400,7,3,32.865578,-117.254147,-17.678000,-2455723.485110,-4767234.033444,3441436.723078,4.966423,4.673760,9.970161,36.794193,-5.225380,7.006855,-0.072284,0.023908,-0.317327,-0.945255,133,32.865578,-117.254148,-20.819874,-2455722.364844,-4767231.769481,3441435.108007,1.798601
300682411447,306501257000,1420932772660406528,306501257000,660417000,25,1,14,23,32,38,661,16,29.090000,102.124008,0.654885,1.778121,3.785244,-0.453484,-0.748617,-8.856211,25,1,14,23,32,34,600,7,3,32.865577,-117.254148,-17.637000,-2455723.585110,-4767234.093444,3441436.653078,4.962441,4.731215,9.976528,35.991394,-4.830620,7.385364,-0.074192,0.020118,-0.310612,-0.947423,133,32.865579,-117.254148,-20.726587,-2455722.409716,-4767231.827543,3441435.168214,1.780402
300707004133,306526257000,1420932772685406720,306526257000,685417000,25,1,14,23,32,38,686,16,29.099998,102.124008,0.651866,1.776628,3.784083,-0.428706,-0.739810,-8.776917,25,1,14,23,32,34,600,7,3,32.865577,-117.254148,-17.637000,-2455723.585110,-4767234.093444,3441436.653078,4.962441,4.731215,9.976528,35.191830,-4.441667,7.758712,-0.076130,0.016416,-0.303882,-0.949521,133,32.865578,-117.254148,-20.750550,-2455722.411243,-4767231.814448,3441435.140993,1.781509
300732352910,306551257000,1420932772710406656,306551257000,710417000,25,1,14,23,32,38,711,16,29.090000,102.137001,0.647234,1.776318,3.783378,-0.252904,-0.754363,-8.968091,25,1,14,23,32,34,600,7,3,32.865577,-117.254148,-17.637000,-2455723.585110,-4767234.093444,3441436.653078,4.962441,4.731215,9.976528,34.420067,-4.056682,8.113289,-0.077979,0.012807,-0.297341,-0.951496,32901,32.865578,-117.254148,-20.775107,-2455722.412764,-4767231.800776,3441435.113474,1.782630
300757732336,306576257000,1420932772735406592,306576257000,735417000,25,1,14,23,32,38,736,0,29.094997,102.129005,0.644436,1.774109,3.782704,0.081727,-0.847843,-9.266220,25,1,14,23,32,34,600,7,3,32.865577,-117.254148,-17.637000,-2455723.585110,-4767234.093444,3441436.653078,4.962441,4.731215,9.976528,33.689827,-3.757225,8.435073,-0.079824,0.009990,-0.291150,-0.953289,32901,32.865578,-117.254148,-20.800212,-2455722.415668,-4767231.785818,3441435.085736,1.783758
300782053707,306601257000,1420932772760406784,306601257000,760417000,25,1,14,23,32,38,761,16,29.090000,102.150002,0.641420,1.772366,3.780597,-0.105054,-0.977552,-9.434664,25,1,14,23,32,34,600,7,3,32.865577,-117.254148,-17.637000,-2455723.585110,-4767234.093444,3441436.653078,4.962441,4.731215,9.976528,33.001850,-3.595696,8.736706,-0.081880,0.008370,-0.285358,-0.954880,133,32.865578,-117.254148,-20.825585,-2455722.417734,-4767231.771192,3441435.057640,1.784906
300807472910,306626257000,1420932772785406464,306626257000,785417000,25,1,14,23,32,38,786,16,29.090000,102.124008,0.641415,1.771643,3.780372,-0.565853,-1.026914,-9.282587,25,1,14,23,32,34,600,7,3,32.865577,-117.254148,-17.637000,-2455723.585110,-4767234.093444,3441436.653078,4.962441,4.731215,9.976528,32.384789,-3.507951,9.017605,-0.083967,0.007391,-0.280181,-0.956239,133,32.865578,-117.254148,-20.851155,-2455722.420082,-4767231.756268,3441435.029393,1.786069
300831840058,306651257000,1420932772810406656,306651257000,810417000,25,1,14,23,32,38,811,16,29.094997,102.137001,0.639334,1.772094,3.780128,-0.475225,-0.917911,-9.321401,25,1,14,23,32,34,600,7,3,32.865577,-117.254148,-17.637000,-2455723.585110,-4767234.093444,3441436.653078,4.962441,4.731215,9.976528,31.858875,-3.413374,9.283246,-0.085928,0.006346,-0.275749,-0.957360,32901,32.865578,-117.254148,-20.876936,-2455722.422485,-4767231.741027,3441435.001154,1.787244
300857598947,306676257000,1420932772835406592,306676257000,835417000,25,1,14,23,32,38,836,0,29.109999,102.129005,0.640261,1.770888,3.778246,-0.288436,-0.883612,-9.285366,25,1,14,23,32,34,800,7,3,32.865576,-117.254148,-17.603000,-2455723.665110,-4767234.143444,3441436.583078,4.964174,4.791933,10.000239,31.397968,-3.306476,9.567724,-0.088032,0.005121,-0.271845,-0.958293,32901,32.865577,-117.254149,-20.902995,-2455722.426325,-4767231.724640,3441434.972958,1.788194
300882117095,306701257000,1420932772860406528,306701257000,860417000,25,1,14,23,32,38,861,16,29.109999,102.129005,0.639346,1.771589,3.777284,-0.190286,-0.900921,-9.047893,25,1,14,23,32,34,800,7,3,32.865576,-117.254148,-17.603000,-2455723.665110,-4767234.143444,3441436.583078,4.964174,4.791933,10.000239,30.988539,-3.211640,9.896623,-0.090548,0.003870,-0.268371,-0.959043,133,32.865577,-117.254149,-20.832187,-2455722.462271,-4767231.781363,3441434.999912,1.771028
300907549966,306726257000,1420932772885406720,306726257000,885417000,25,1,14,23,32,38,886,16,29.100002,102.129005,0.639338,1.770869,3.777535,-0.069342,-0.951131,-8.911863,25,1,14,23,32,34,800,7,3,32.865576,-117.254148,-17.603000,-2455723.665110,-4767234.143444,3441436.583078,4.964174,4.791933,10.000239,30.608519,-3.157370,10.276261,-0.093591,0.002837,-0.265164,-0.959646,133,32.865577,-117.254149,-20.858683,-2455722.465416,-4767231.764809,3441434.971635,1.772410
300931859984,306751257000,1420932772910406656,306751257000,910417000,25,1,14,23,32,38,911,16,29.109999,102.129005,0.639114,1.771831,3.777756,0.078524,-1.239805,-8.945539,25,1,14,23,32,34,800,7,3,32.865576,-117.254148,-17.603000,-2455723.665110,-4767234.143444,3441436.583078,4.964174,4.791933,10.000239,30.219952,-3.197766,10.743198,-0.097585,0.002426,-0.261949,-0.960132,32901,32.865577,-117.254149,-20.885721,-2455722.468666,-4767231.747719,3441434.943023,1.773577
300957217336,306776257000,1420932772935406592,306776257000,935417000,25,1,14,23,32,38,936,0,29.089996,102.124008,0.639387,1.775920,3.777211,0.003305,-1.512078,-9.242503,25,1,14,23,32,34,800,7,3,32.865576,-117.254148,-17.603000,-2455723.665110,-4767234.143444,3441436.583078,4.964174,4.791933,10.000239,29.790142,-3.448047,11.288354,-0.102698,0.003664,-0.258547,-0.960517,32901,32.865577,-117.254149,-20.913239,-2455722.472093,-4767231.730173,3441434.914028,1.774521
300982560077,306801257000,1420932772960406528,306801257000,960417000,25,1,14,23,32,38,961,16,29.100002,102.129005,0.642414,1.778378,3.778594,-0.286636,-1.929383,-9.387383,25,1,14,23,32,34,800,7,3,32.865576,-117.254148,-17.603000,-2455723.665110,-4767234.143444,3441436.583078,4.964174,4.791933,10.000239,29.296223,-3.961558,11.851813,-0.108521,0.007170,-0.254833,-0.960850,133,32.865577,-117.254149,-20.941054,-2455722.475848,-4767231.712323,3441434.884672,1.775955
301006881595,306826257000,1420932772985406720,306826257000,985417000,25,1,14,23,32,38,986,16,29.100002,102.129005,0.647534,1.781587,3.779962,-0.912531,-2.355381,-9.927919,25,1,14,23,32,34,800,7,3,32.865576,-117.254148,-17.603000,-2455723.665110,-4767234.143444,3441436.583078,4.964174,4.791933,10.000239,28.749401,-4.717185,12.372318,-0.114455,0.012903,-0.250903,-0.961135,133,32.865577,-117.254149,-20.968946,-2455722.479647,-4767231.694479,3441434.855134,1.777167
301032185762,306851257000,1420932773010406656,306851257000,10420000,25,1,14,23,32,39,11,16,29.105000,102.141006,0.651695,1.782636,3.783506,-1.569978,-2.406821,-10.242510,25,1,14,23,32,34,800,7,3,32.865576,-117.254148,-17.603000,-2455723.665110,-4767234.143444,3441436.583078,4.964174,4.791933,10.000239,28.181122,-5.697963,12.797563,-0.119986,0.020809,-0.247012,-0.961330,32901,32.865576,-117.254149,-20.996547,-2455722.483399,-4767231.676947,3441434.825736,1.778394
301057477910,306876257000,1420932773035406592,306876257000,35420000,25,1,14,23,32,39,36,0,29.094997,102.129005,0.660498,1.784712,3.787268,-2.519757,-2.188094,-10.347925,25,1,14,23,32,34,800,7,3,32.865576,-117.254148,-17.603000,-2455723.665110,-4767234.143444,3441436.583078,4.964174,4.791933,10.000239,27.646250,-6.745602,13.128495,-0.124779,0.029488,-0.243479,-0.961394,32901,32.865576,-117.254149,-21.023622,-2455722.487048,-4767231.659818,3441434.796827,1.779634
301081681910,306901257000,1420932773060408832,306901257000,60420000,25,1,14,23,32,39,61,16,29.109999,102.141006,0.665359,1.786494,3.791038,-3.269619,-2.124833,-9.974186,25,1,14,23,32,35,0,7,3,32.865575,-117.254149,-17.633000,-2455723.725110,-4767234.153444,3441436.473078,4.968851,4.845332,10.022514,27.223034,-7.622952,13.415788,-0.128812,0.036736,-0.240756,-0.961298,133,32.865576,-117.254149,-20.954649,-2455722.515262,-4767231.709985,3441434.834900,1.762462
301107009762,306926257000,1420932773085408768,306926257000,85420000,25,1,14,23,32,39,86,16,29.109999,102.129005,0.670704,1.787521,3.790066,-3.211089,-2.012549,-9.418941,25,1,14,23,32,35,0,7,3,32.865575,-117.254149,-17.633000,-2455723.725110,-4767234.153444,3441436.473078,4.968851,4.845332,10.022514,26.972511,-8.093774,13.668859,-0.131772,0.040456,-0.239144,-0.961150,133,32.865576,-117.254150,-20.980470,-2455722.517756,-4767231.693200,3441434.808648,1.763893
301132435114,306951256000,1420932773110407936,306951256000,110419000,25,1,14,23,32,39,111,16,29.109999,102.129005,0.669321,1.788466,3.790289,-2.407687,-1.891246,-9.674351,25,1,14,23,32,35,0,7,3,32.865575,-117.254149,-17.633000,-2455723.725110,-4767234.153444,3441436.473078,4.968851,4.845332,10.022514,26.895231,-8.112773,13.901278,-0.133731,0.040221,-0.238594,-0.961026,32901,32.865576,-117.254150,-21.006141,-2455722.519772,-4767231.676359,3441434.783086,1.765091
301156926984,306976257000,1420932773135408896,306976257000,135420000,25,1,14,23,32,39,136,0,29.109999,102.129005,0.670283,1.791599,3.789284,-1.545609,-2.171375,-10.163919,25,1,14,23,32,35,0,7,3,32.865575,-117.254149,-17.633000,-2455723.725110,-4767234.153444,3441436.473078,4.968851,4.845332,10.022514,26.894323,-7.977311,14.154790,-0.135594,0.038554,-0.238553,-0.960844,32901,32.865576,-117.254150,-21.031608,-2455722.521628,-4767231.659422,3441434.758146,1.766294
301182082280,307001257000,1420932773160408832,307001257000,160420000,25,1,14,23,32,39,161,16,29.099998,102.137001,0.671685,1.792818,3.789025,-1.417527,-2.509806,-10.341795,25,1,14,23,32,35,0,7,3,32.865575,-117.254149,-17.633000,-2455723.725110,-4767234.153444,3441436.473078,4.968851,4.845332,10.022514,26.837624,-8.019769,14.432076,-0.137982,0.038402,-0.238210,-0.960595,133,32.865576,-117.254150,-21.056629,-2455722.523768,-4767231.642700,3441434.733532,1.767509
301206903318,307026257000,1420932773185408768,307026257000,185420000,25,1,14,23,32,39,186,16,29.109999,102.129005,0.673321,1.795505,3.791118,-1.925327,-2.713917,-10.251062,25,1,14,23,32,35,0,7,3,32.865575,-117.254149,-17.633000,-2455723.725110,-4767234.153444,3441436.473078,4.968851,4.845332,10.022514,26.723717,-8.285568,14.663469,-0.140394,0.040297,-0.237581,-0.960323,133,32.865576,-117.254150,-21.081052,-2455722.526204,-4767231.626415,3441434.709207,1.768736
301232238466,307051257000,1420932773210408704,307051257000,210420000,25,1,14,23,32,39,211,16,29.109999,102.129005,0.672624,1.795256,3.791123,-2.244431,-2.691807,-10.027065,25,1,14,23,32,35,0,7,3,32.865575,-117.254149,-17.633000,-2455723.725110,-4767234.153444,3441436.473078,4.968851,4.845332,10.022514,26.655827,-8.550875,14.757933,-0.141668,0.042418,-0.237295,-0.960115,32901,32.865576,-117.254150,-21.104869,-2455722.528652,-4767231.610597,3441434.685348,1.769976
301256759373,307076257000,1420932773235408896,307076257000,235420000,25,1,14,23,32,39,236,0,29.109999,102.129005,0.673559,1.796233,3.791343,-2.332882,-2.545178,-9.983824,25,1,14,23,32,35,0,7,3,32.865575,-117.254149,-17.633000,-2455723.725110,-4767234.153444,3441436.473078,4.968851,4.845332,10.022514,26.717604,-8.638818,14.733335,-0.141653,0.043133,-0.237886,-0.959940,32901,32.865575,-117.254150,-21.128197,-2455722.530955,-4767231.595124,3441434.662020,1.771227
301282144595,307101258000,1420932773260409856,307101258000,260421000,25,1,14,23,32,39,261,16,29.099998,102.124008,0.673090,1.795748,3.791590,-2.185233,-2.299469,-9.742582,25,1,14,23,32,35,200,7,3,32.865575,-117.254150,-17.628000,-2455723.825110,-4767234.153444,3441436.403078,4.965378,4.877632,10.035002,26.921286,-8.524670,14.658456,-0.140882,0.042078,-0.239458,-0.959709,32901,32.865576,-117.254150,-21.028345,-2455722.581362,-4767231.653210,3441434.730367,1.753323
301306528614,307126257000,1420932773285408768,307126257000,285420000,25,1,14,23,32,39,286,16,29.109999,102.141006,0.672426,1.797156,3.788477,-1.872887,-2.316191,-9.246159,25,1,14,23,32,35,200,7,3,32.865575,-117.254150,-17.628000,-2455723.825110,-4767234.153444,3441436.403078,4.965378,4.877632,10.035002,27.295195,-8.216990,14.579832,-0.139758,0.039197,-0.242275,-0.959288,133,32.865576,-117.254150,-21.050594,-2455722.583501,-4767231.638031,3441434.708737,1.754756
301331914780,307151257000,1420932773310408704,307151257000,310420000,25,1,14,23,32,39,311,16,29.109999,102.129005,0.668712,1.798094,3.791554,-1.400008,-2.119866,-8.747444,25,1,14,23,32,35,200,7,3,32.865575,-117.254150,-17.628000,-2455723.825110,-4767234.153444,3441436.403078,4.965378,4.877632,10.035002,27.828133,-7.752939,14.517900,-0.138492,0.034782,-0.246285,-0.958621,133,32.865575,-117.254151,-21.072946,-2455722.585484,-4767231.622761,3441434.687155,1.755961
301357422151,307176257000,1420932773335408640,307176257000,335420000,25,1,14,23,32,39,336,0,29.094997,102.129005,0.665745,1.799932,3.786058,-0.891573,-2.114942,-8.551311,25,1,14,23,32,35,200,7,3,32.865575,-117.254150,-17.628000,-2455723.825110,-4767234.153444,3441436.403078,4.965378,4.877632,10.035002,28.474874,-7.227177,14.503330,-0.137484,0.029620,-0.251200,-0.957663,32901,32.865575,-117.254151,-21.095738,-2455722.587277,-4767231.607121,3441434.665405,1.757177
301381756003,307201257000,1420932773360408832,307201257000,360420000,25,1,14,23,32,39,361,16,29.109999,102.129005,0.663694,1.801804,3.783176,-0.694932,-2.313933,-8.554246,25,1,14,23,32,35,200,7,3,32.865575,-117.254150,-17.628000,-2455723.825110,-4767234.153444,3441436.403078,4.965378,4.877632,10.035002,29.162014,-6.741591,14.561925,-0.137124,0.024595,-0.256498,-0.956452,32901,32.865575,-117.254151,-21.119108,-2455722.588981,-4767231.591059,3441434.643231,1.758407
301407111114,307226257000,1420932773385408768,307226257000,385420000,25,1,14,23,32,39,386,16,29.109999,102.141006,0.662576,1.805632,3.782399,-0.623602,-2.469624,-8.645787,25,1,14,23,32,35,200,7,3,32.865575,-117.254150,-17.628000,-2455723.825110,-4767234.153444,3441436.403078,4.965378,4.877632,10.035002,29.845224,-6.346076,14.650485,-0.137150,0.020265,-0.261840,-0.955101,133,32.865575,-117.254151,-21.143041,-2455722.590597,-4767231.574664,3441434.620544,1.759651
301431409151,307251257000,1420932773410408704,307251257000,410420000,25,1,14,23,32,39,411,16,29.109999,102.129005,0.659614,1.810150,3.780899,-0.755028,-2.422868,-8.691460,25,1,14,23,32,35,200,7,3,32.865575,-117.254150,-17.628000,-2455723.825110,-4767234.153444,3441436.403078,4.965378,4.877632,10.035002,30.504799,-6.034355,14.741875,-0.137334,0.016658,-0.267051,-0.953701,133,32.865575,-117.254151,-21.167472,-2455722.592118,-4767231.558022,3441434.597343,1.760910
301456805817,307276257000,1420932773435408896,307276257000,435420000,25,1,14,23,32,39,436,0,29.109999,102.141006,0.658717,1.812531,3.779432,-0.932786,-2.475536,-8.759028,25,1,14,23,32,35,200,7,3,32.865575,-117.254150,-17.628000,-2455723.825110,-4767234.153444,3441436.403078,4.965378,4.877632,10.035002,31.152525,-5.770063,14.824368,-0.137513,0.013481,-0.272194,-0.952270,32901,32.865575,-117.254151,-21.192367,-2455722.593493,-4767231.541120,3441434.573751,1.762184
301482302114,307301257000,1420932773460408576,307301257000,460420000,25,1,14,23,32,39,461,16,29.109999,102.129005,0.657832,1.815383,3.776771,-1.021791,-2.508486,-8.889993,25,1,14,23,32,35,400,7,3,32.865574,-117.254151,-17.606000,-2455723.925110,-4767234.163444,3441436.363078,4.954042,4.891803,10.039511,31.787954,-5.506943,14.901932,-0.137621,0.010340,-0.277224,-0.950842,32901,32.865575,-117.254151,-21.081179,-2455722.632658,-4767231.605205,3441434.662704,1.743937
301506630743,307326257000,1420932773485408768,307326257000,485420000,25,1,14,23,32,39,486,16,29.109999,102.141006,0.658123,1.819442,3.772661,-0.977508,-2.564736,-9.070642,25,1,14,23,32,35,400,7,3,32.865574,-117.254151,-17.606000,-2455723.925110,-4767234.163444,3441436.363078,4.954042,4.891803,10.039511,32.428513,-5.236199,14.969163,-0.137594,0.007154,-0.282275,-0.949388,133,32.865575,-117.254151,-21.106294,-2455722.633586,-4767231.588017,3441434.639416,1.745394
301532360077,307351257000,1420932773510408960,307351257000,510420000,25,1,14,23,32,39,511,16,29.109999,102.129005,0.657215,1.821355,3.772630,-0.863414,-2.584206,-9.177281,25,1,14,23,32,35,400,7,3,32.865574,-117.254151,-17.606000,-2455723.925110,-4767234.163444,3441436.363078,4.954042,4.891803,10.039511,33.069389,-4.984239,15.026012,-0.137494,0.004150,-0.287336,-0.947901,133,32.865575,-117.254151,-21.131619,-2455722.634359,-4767231.570726,3441434.615991,1.746623
301556612021,307376262000,1420932773535413760,307376262000,535425000,25,1,14,23,32,39,536,0,29.109999,102.129005,0.654721,1.825874,3.770417,-0.830105,-2.456369,-9.156336,25,1,14,23,32,35,400,7,3,32.865574,-117.254151,-17.606000,-2455723.925110,-4767234.163444,3441436.363078,4.954042,4.891803,10.039511,33.719296,-4.716799,15.069946,-0.137220,0.001042,-0.292445,-0.946386,32901,32.865575,-117.254151,-21.157098,-2455722.635012,-4767231.553388,3441434.592433,1.747865
301582119817,307401257000,1420932773560408832,307401257000,560420000,25,1,14,23,32,39,561,16,29.109999,102.129005,0.654749,1.828272,3.769426,-0.595971,-2.378641,-8.911536,25,1,14,23,32,35,400,7,3,32.865574,-117.254151,-17.606000,-2455723.925110,-4767234.163444,3441436.363078,4.954042,4.891803,10.039511,34.411797,-4.388950,15.100289,-0.136650,-0.002578,-0.297833,-0.944783,32901,32.865575,-117.254151,-21.182771,-2455722.635568,-4767231.535929,3441434.568755,1.749120
301606379169,307426257000,1420932773585408768,307426257000,585420000,25,1,14,23,32,39,586,16,29.109999,102.141006,0.653392,1.830887,3.767956,-0.222380,-2.113938,-8.771893,25,1,14,23,32,35,400,7,3,32.865574,-117.254151,-17.606000,-2455723.925110,-4767234.163444,3441436.363078,4.954042,4.891803,10.039511,35.151985,-3.970791,15.118074,-0.135702,-0.006959,-0.303511,-0.943089,133,32.865575,-117.254152,-21.208811,-2455722.636045,-4767231.518208,3441434.544816,1.750388
301631690169,307451257000,1420932773610408704,307451257000,610420000,25,1,14,23,32,39,611,16,29.109999,102.141006,0.651361,1.834681,3.764565,0.356488,-1.996101,-8.758912,25,1,14,23,32,35,400,7,3,32.865574,-117.254151,-17.606000,-2455723.925110,-4767234.163444,3441436.363078,4.954042,4.891803,10.039511,35.951466,-3.507267,15.158776,-0.134764,-0.011833,-0.309614,-0.941190,133,32.865575,-117.254152,-21.235359,-2455722.636614,-4767231.500038,3441434.520491,1.751669
301657214354,307476257000,1420932773635408896,307476257000,635420000,25,1,14,23,32,39,636,0,29.109999,102.129005,0.650004,1.837539,3.763330,0.767004,-2.137727,-8.719942,25,1,14,23,32,35,400,7,3,32.865574,-117.254151,-17.606000,-2455723.925110,-4767234.163444,3441436.363078,4.954042,4.891803,10.039511,36.793541,-3.099067,15.219213,-0.134068,-0.016343,-0.316100,-0.939063,32901,32.865574,-117.254152,-21.262458,-2455722.637544,-4767231.481351,3441434.495609,1.752966
301681475873,307501257000,1420932773660408832,307501257000,660420000,25,1,14,23,32,39,661,16,29.120001,102.141006,0.648885,1.840879,3.761847,0.628132,-2.404578,-8.999628,25,1,14,23,32,35,600,7,3,32.865573,-117.254152,-17.620000,-2455723.995110,-4767234.153444,3441436.303078,4.939018,4.892424,10.030747,37.637871,-2.790502,15.259461,-0.133421,-0.019973,-0.322688,-0.936842,32901,32.865575,-117.254152,-21.146376,-2455722.706184,-4767231.546535,3441434.571174,1.734700
301707198928,307526257000,1420932773685408768,307526257000,685420000,25,1,14,23,32,39,686,16,29.109999,102.129005,0.649640,1.844945,3.757738,0.258763,-2.495231,-9.139286,25,1,14,23,32,35,600,7,3,32.865573,-117.254152,-17.620000,-2455723.995110,-4767234.153444,3441436.303078,4.939018,4.892424,10.030747,38.472740,-2.579011,15.235670,-0.132481,-0.022604,-0.329292,-0.934615,133,32.865574,-117.254152,-21.173812,-2455722.708528,-4767231.527282,3441434.545447,1.736191
301731456354,307551257000,1420932773710408704,307551257000,710420000,25,1,14,23,32,39,711,16,29.109999,102.129005,0.648256,1.846868,3.759846,0.225423,-2.409616,-9.210017,25,1,14,23,32,35,600,7,3,32.865573,-117.254152,-17.620000,-2455723.995110,-4767234.153444,3441436.303078,4.939018,4.892424,10.030747,39.294624,-2.394228,15.124766,-0.130880,-0.024735,-0.335822,-0.932460,133,32.865574,-117.254152,-21.201463,-2455722.710954,-4767231.507883,3441434.519466,1.737451
301756782169,307576257000,1420932773735408896,307576257000,735420000,25,1,14,23,32,39,736,0,29.109999,102.129005,0.648057,1.849742,3.758609,0.148857,-2.327139,-9.232939,25,1,14,23,32,35,600,7,3,32.865573,-117.254152,-17.620000,-2455723.995110,-4767234.153444,3441436.303078,4.939018,4.892424,10.030747,40.090191,-2.220925,14.930224,-0.128616,-0.026472,-0.342156,-0.930423,32901,32.865574,-117.254152,-21.229298,-2455722.713629,-4767231.488336,3441434.493173,1.738726
301782138873,307601257000,1420932773760408832,307601257000,760420000,25,1,14,23,32,39,761,16,29.109999,102.129005,0.648998,1.850466,3.757407,0.156255,-2.240563,-9.187899,25,1,14,23,32,35,600,7,3,32.865573,-117.254152,-17.620000,-2455723.995110,-4767234.153444,3441436.303078,4.939018,4.892424,10.030747,40.834949,-2.097226,14.669075,-0.125954,-0.027518,-0.348135,-0.928537,32901,32.865574,-117.254153,-21.257329,-2455722.716510,-4767231.468605,3441434.466628,1.740015
301806972113,307626257000,1420932773785408768,307626257000,785420000,25,1,14,23,32,39,786,16,29.109999,102.129005,0.650395,1.851204,3.757156,0.265897,-2.117728,-9.371666,25,1,14,23,32,35,600,7,3,32.865573,-117.254152,-17.620000,-2455723.995110,-4767234.153444,3441436.303078,4.939018,4.892424,10.030747,41.533852,-2.063364,14.348610,-0.123090,-0.027570,-0.353837,-0.926762,133,32.865574,-117.254153,-21.285546,-2455722.719611,-4767231.448676,3441434.439855,1.741319
301831181780,307651256000,1420932773810407936,307651256000,810419000,25,1,14,23,32,39,811,16,29.109999,102.141006,0.649009,1.852644,3.759034,0.466532,-2.135468,-9.663466,25,1,14,23,32,35,600,7,3,32.865573,-117.254152,-17.620000,-2455723.995110,-4767234.153444,3441436.303078,4.939018,4.892424,10.030747,42.218872,-2.156743,13.963443,-0.120104,-0.026343,-0.359551,-0.924989,133,32.865574,-117.254153,-21.313881,-2455722.723050,-4767231.428558,3441434.412885,1.742638
301856832928,307676257000,1420932773835408640,307676257000,835420000,25,1,14,23,32,39,836,0,29.109999,102.129005,0.654097,1.852241,3.759989,0.429881,-2.087739,-10.410991,25,1,14,23,32,35,800,7,3,32.865573,-117.254153,-17.590000,-2455724.145110,-4767234.163444,3441436.243078,4.927647,4.887816,10.018800,42.892067,-2.476366,13.520383,-0.117384,-0.023056,-0.365366,-0.923145,32901,32.865574,-117.254153,-21.342119,-2455722.727015,-4767231.408402,3441434.385773,1.743973
301881668262,307701257000,1420932773860408832,307701257000,860420000,25,1,14,23,32,39,861,16,29.109999,102.116005,0.658271,1.853515,3.761628,-0.042597,-2.042914,-10.984846,25,1,14,23,32,35,800,7,3,32.865573,-117.254153,-17.590000,-2455724.145110,-4767234.163444,3441436.243078,4.927647,4.887816,10.018800,43.542801,-3.129970,13.097445,-0.115937,-0.017088,-0.371239,-0.921112,32901,32.865574,-117.254153,-21.233710,-2455722.789796,-4767231.475388,3441434.448873,1.726343
301906171687,307726257000,1420932773885408768,307726257000,885420000,25,1,14,23,32,39,886,16,29.109999,102.141006,0.665694,1.855801,3.763961,-1.154163,-2.057950,-11.073884,25,1,14,23,32,35,800,7,3,32.865573,-117.254153,-17.590000,-2455724.145110,-4767234.163444,3441436.243078,4.927647,4.887816,10.018800,44.163883,-4.032540,12.758412,-0.116039,-0.009343,-0.376996,-0.918870,32901,32.865574,-117.254153,-21.260130,-2455722.795480,-4767231.455986,3441434.422855,1.727623
301931564187,307751257000,1420932773910408704,307751257000,910420000,25,1,14,23,32,39,911,16,29.115000,102.141006,0.671255,1.858076,3.767959,-1.950228,-1.790401,-10.754010,25,1,14,23,32,35,800,7,3,32.865573,-117.254153,-17.590000,-2455724.145110,-4767234.163444,3441436.243078,4.927647,4.887816,10.018800,44.750492,-4.938107,12.548232,-0.117264,-0.001965,-0.382393,-0.916526,133,32.865574,-117.254153,-21.285656,-2455722.801290,-4767231.437119,3441434.397661,1.728915
301957063965,307776257000,1420932773935408896,307776257000,935420000,25,1,14,23,32,39,936,0,29.109999,102.129005,0.677976,1.860119,3.771010,-2.003916,-1.682772,-10.639054,25,1,14,23,32,35,800,7,3,32.865573,-117.254153,-17.590000,-2455724.145110,-4767234.163444,3441436.243078,4.927647,4.887816,10.018800,45.316792,-5.670210,12.489631,-0.119200,0.003520,-0.387446,-0.914147,133,32.865573,-117.254154,-21.310422,-2455722.806941,-4767231.418629,3441434.373459,1.730215
301981766224,307801257000,1420932773960408576,307801257000,960420000,25,1,14,23,32,39,961,16,29.109999,102.129005,0.684035,1.863809,3.770943,-1.653849,-1.841049,-9.952888,25,1,14,23,32,35,800,7,3,32.865573,-117.254153,-17.590000,-2455724.145110,-4767234.163444,3441436.243078,4.927647,4.887816,10.018800,45.828449,-6.250157,12.536654,-0.121518,0.007466,-0.391932,-0.911903,32901,32.865573,-117.254154,-21.334550,-2455722.812452,-4767231.400422,3441434.350144,1.731524
302006144391,307826257000,1420932773985408768,307826257000,985420000,25,1,14,23,32,39,986,16,29.120001,102.129005,0.688925,1.867990,3.773722,-1.630291,-1.860394,-9.215743,25,1,14,23,32,35,800,7,3,32.865573,-117.254153,-17.590000,-2455724.145110,-4767234.163444,3441436.243078,4.927647,4.887816,10.018800,46.308975,-6.707385,12.588720,-0.123496,0.010427,-0.396069,-0.909818,32901,32.865573,-117.254154,-21.358499,-2455722.818822,-4767231.381645,3441434.327334,1.732842
302031574576,307851257000,1420932774010408960,307851257000,10422000,25,1,14,23,32,40,11,16,29.124998,102.133003,0.689188,1.871605,3.774136,-2.192806,-1.940644,-8.621408,25,1,14,23,32,35,800,7,3,32.865573,-117.254153,-17.590000,-2455724.145110,-4767234.163444,3441436.243078,4.927647,4.887816,10.018800,46.824306,-6.887310,12.568649,-0.123993,0.011375,-0.400275,-0.907896,133,32.865573,-117.254154,-21.382584,-2455722.823850,-4767231.363338,3441434.304576,1.734164
302056134780,307876257000,1420932774035408640,307876257000,35422000,25,1,14,23,32,40,36,0,29.109999,102.129005,0.690823,1.872584,3.773405,-1.788254,-1.842724,-8.499478,25,1,14,23,32,35,800,7,3,32.865573,-117.254153,-17.590000,-2455724.145110,-4767234.163444,3441436.243078,4.927647,4.887816,10.018800,47.436172,-6.627228,12.416090,-0.121953,0.009184,-0.404932,-0.906131,133,32.865573,-117.254154,-21.407166,-2455722.828060,-4767231.344754,3441434.281866,1.735503
302081792058,307901257000,1420932774060411136,307901257000,60422000,25,1,14,23,32,40,61,16,29.120001,102.129005,0.688032,1.870854,3.772486,-0.792712,-1.850696,-8.874953,25,1,14,23,32,36,0,7,3,32.865572,-117.254154,-17.550000,-2455724.295110,-4767234.173444,3441436.193078,4.915180,4.883816,10.007615,48.151493,-6.113268,12.173829,-0.118305,0.005214,-0.410229,-0.904261,32901,32.865573,-117.254154,-21.273216,-2455722.884336,-4767231.432429,3441434.368173,1.717092
302106092391,307926257000,1420932774085411072,307926257000,85422000,25,1,14,23,32,40,86,16,29.109999,102.129005,0.687609,1.873957,3.770294,-0.353683,-1.958083,-9.227125,25,1,14,23,32,36,0,7,3,32.865572,-117.254154,-17.550000,-2455724.295110,-4767234.173444,3441436.193078,4.915180,4.883816,10.007615,48.918076,-5.761973,11.878970,-0.114771,0.002715,-0.416034,-0.902073,32901,32.865573,-117.254154,-21.298193,-2455722.888024,-4767231.413377,3441434.345749,1.718611
302132508410,307951257000,1420932774110411264,307951257000,110422000,25,1,14,23,32,40,111,16,29.109999,102.129005,0.687832,1.874464,3.772901,-0.566504,-1.930216,-9.661833,25,1,14,23,32,36,0,7,3,32.865572,-117.254154,-17.550000,-2455724.295110,-4767234.173444,3441436.193078,4.915180,4.883816,10.007615,49.708179,-5.792015,11.567852,-0.112454,0.003307,-0.422255,-0.899469,133,32.865573,-117.254155,-21.323362,-2455722.892000,-4767231.394176,3441434.322971,1.719892
302156339169,307976257000,1420932774135411200,307976257000,135422000,25,1,14,23,32,40,136,0,29.124998,102.141006,0.693183,1.876702,3.772859,-1.107655,-1.556509,-9.746408,25,1,14,23,32,36,0,7,3,32.865572,-117.254154,-17.550000,-2455724.295110,-4767234.173444,3441436.193078,4.915180,4.883816,10.007615,50.511314,-6.155600,11.296406,-0.111681,0.006393,-0.428753,-0.896469,133,32.865573,-117.254155,-21.348496,-2455722.896211,-4767231.374963,3441434.300107,1.721186
302182846502,308001256000,1420932774160410112,308001256000,160421000,25,1,14,23,32,40,161,16,29.109999,102.129005,0.697602,1.879423,3.774475,-1.447524,-1.213984,-9.553320,25,1,14,23,32,36,0,7,3,32.865572,-117.254154,-17.550000,-2455724.295110,-4767234.173444,3441436.193078,4.915180,4.883816,10.007615,51.295948,-6.675425,11.180748,-0.112749,0.010141,-0.435164,-0.893206,32901,32.865573,-117.254155,-21.373575,-2455722.900452,-4767231.355646,3441434.277468,1.722493
302206645002,308026257000,1420932774185411328,308026257000,185422000,25,1,14,23,32,40,186,16,29.120001,102.129005,0.703200,1.883104,3.773934,-1.555602,-0.957187,-9.191304,25,1,14,23,32,36,0,7,3,32.865572,-117.254154,-17.550000,-2455724.295110,-4767234.173444,3441436.193078,4.915180,4.883816,10.007615,52.048981,-7.156967,11.263406,-0.115265,0.012844,-0.441290,-0.889838,32901,32.865573,-117.254155,-21.398731,-2455722.904554,-4767231.336041,3441434.255180,1.723810
302232073428,308051257000,1420932774210411008,308051257000,210422000,25,1,14,23,32,40,211,16,29.109999,102.141006,0.704643,1.889147,3.774783,-1.418055,-1.022271,-8.828800,25,1,14,23,32,36,0,7,3,32.865572,-117.254154,-17.550000,-2455724.295110,-4767234.173444,3441436.193078,4.915180,4.883816,10.007615,52.798214,-7.462741,11.482918,-0.118208,0.013614,-0.447285,-0.886441,133,32.865573,-117.254155,-21.424183,-2455722.908419,-4767231.315929,3441434.233211,1.725136
302256838317,308076257000,1420932774235411200,308076257000,235422000,25,1,14,23,32,40,236,0,29.125000,102.141006,0.709799,1.894742,3.773734,-0.890526,-1.000662,-8.775610,25,1,14,23,32,36,0,7,3,32.865572,-117.254154,-17.550000,-2455724.295110,-4767234.173444,3441436.193078,4.915180,4.883816,10.007615,53.534256,-7.584172,11.759326,-0.120891,0.012704,-0.453064,-0.883152,133,32.865573,-117.254155,-21.450154,-2455722.912053,-4767231.295168,3441434.211343,1.726471
302282337261,308101257000,1420932774260411136,308101257000,260422000,25,1,14,23,32,40,261,16,29.109999,102.129005,0.712406,1.900055,3.771978,-0.546994,-0.991444,-8.682050,25,1,14,23,32,36,200,7,3,32.865571,-117.254155,-17.535000,-2455724.415110,-4767234.163444,3441436.153078,4.900996,4.883396,10.001873,54.185608,-7.654347,12.118549,-0.123994,0.011124,-0.458151,-0.880113,32901,32.865573,-117.254155,-21.324787,-2455722.979167,-4767231.372672,3441434.288150,1.708672
302307071595,308126257000,1420932774285411072,308126257000,285422000,25,1,14,23,32,40,286,16,29.109999,102.129005,0.715921,1.904192,3.771906,-0.123640,-0.995437,-8.568583,25,1,14,23,32,36,200,7,3,32.865571,-117.254155,-17.535000,-2455724.415110,-4767234.163444,3441436.153078,4.900996,4.883396,10.001873,54.720356,-7.813860,12.548320,-0.127962,0.010042,-0.462382,-0.877342,32901,32.865573,-117.254156,-21.351542,-2455722.983276,-4767231.350387,3441434.266600,1.709939
302332435058,308151257000,1420932774310411264,308151257000,310422000,25,1,14,23,32,40,311,16,29.115000,102.141006,0.718090,1.911656,3.769163,0.133912,-0.990915,-8.430300,25,1,14,23,32,36,200,7,3,32.865571,-117.254155,-17.535000,-2455724.415110,-4767234.163444,3441436.153078,4.900996,4.883396,10.001873,55.123550,-8.159317,13.052203,-0.133207,0.010205,-0.465710,-0.874795,133,32.865572,-117.254156,-21.379086,-2455722.987752,-4767231.327081,3441434.244738,1.711217
302356784706,308176257000,1420932774335410944,308176257000,335422000,25,1,14,23,32,40,336,0,29.129997,102.133003,0.722780,1.917007,3.768358,-0.172700,-1.298360,-8.643206,25,1,14,23,32,36,200,7,3,32.865571,-117.254155,-17.535000,-2455724.415110,-4767234.163444,3441436.153078,4.900996,4.883396,10.001873,55.391899,-8.689635,13.646263,-0.139852,0.011544,-0.468131,-0.872446,133,32.865572,-117.254156,-21.407494,-2455722.992750,-4767231.302608,3441434.222520,1.712507
302382126113,308201257000,1420932774360411136,308201257000,360422000,25,1,14,23,32,40,361,16,29.119997,102.133003,0.728875,1.924058,3.767283,-0.812513,-1.834128,-8.529251,25,1,14,23,32,36,200,7,3,32.865571,-117.254155,-17.535000,-2455724.415110,-4767234.163444,3441436.153078,4.900996,4.883396,10.001873,55.531269,-9.292804,14.293870,-0.147172,0.013354,-0.469635,-0.870405,133,32.865572,-117.254156,-21.436641,-2455722.998153,-4767231.277183,3441434.199966,1.713810
302407515335,308226257000,1420932774385411328,308226257000,385422000,25,1,14,23,32,40,386,16,29.129999,102.133003,0.732186,1.929369,3.764101,-1.142755,-1.976453,-8.603417,25,1,14,23,32,36,200,7,3,32.865571,-117.254155,-17.535000,-2455724.415110,-4767234.163444,3441436.153078,4.900996,4.883396,10.001873,55.575901,-9.774094,14.932244,-0.153917,0.014370,-0.470361,-0.868829,32901,32.865572,-117.254156,-21.466431,-2455723.003630,-4767231.251115,3441434.177057,1.715127
302431779558,308251259000,1420932774410413312,308251259000,410424000,25,1,14,23,32,40,411,16,29.115000,102.141006,0.733146,1.932750,3.764044,-0.989286,-1.992954,-8.894737,25,1,14,23,32,36,200,7,3,32.865571,-117.254155,-17.535000,-2455724.415110,-4767234.163444,3441436.153078,4.900996,4.883396,10.001873,55.567520,-10.060709,15.541792,-0.159660,0.014078,-0.470565,-0.867686,32901,32.865572,-117.254156,-21.496764,-2455723.009119,-4767231.224493,3441434.153901,1.716457
302457113558,308276257000,1420932774435411200,308276257000,435422000,25,1,14,23,32,40,436,0,29.129997,102.133003,0.736925,1.938302,3.760145,-1.298611,-2.604851,-9.219975,25,1,14,23,32,36,200,7,3,32.865571,-117.254155,-17.535000,-2455724.415110,-4767234.163444,3441436.153078,4.900996,4.883396,10.001873,55.512272,-10.215453,16.153049,-0.164886,0.012833,-0.470328,-0.866856,133,32.865572,-117.254157,-21.527442,-2455723.014861,-4767231.197374,3441434.130614,1.717802
302482732132,308301257000,1420932774460411136,308301257000,460422000,25,1,14,23,32,40,461,16,29.129999,102.133003,0.737416,1.939975,3.757977,-1.456961,-2.982477,-9.343648,25,1,14,23,32,36,400,7,3,32.865571,-117.254157,-17.604000,-2455724.505110,-4767234.073444,3441436.083078,4.888065,4.886679,10.000402,55.352596,-10.323833,16.722670,-0.169601,0.011562,-0.469261,-0.866543,133,32.865572,-117.254157,-21.379270,-2455723.119873,-4767231.264066,3441434.237458,1.699336
302507006169,308326257000,1420932774485411072,308326257000,485422000,25,1,14,23,32,40,486,16,29.129999,102.145004,0.737691,1.944305,3.757429,-1.628564,-2.936708,-9.337443,25,1,14,23,32,36,400,7,3,32.865571,-117.254157,-17.604000,-2455724.505110,-4767234.073444,3441436.083078,4.888065,4.886679,10.000402,55.072983,-10.393705,17.249132,-0.173827,0.010365,-0.467251,-0.866806,32901,32.865572,-117.254158,-21.409258,-2455723.126534,-4767231.236983,3441434.214743,1.700598
302532365613,308351257000,1420932774510411264,308351257000,510422000,25,1,14,23,32,40,511,16,29.115000,102.141006,0.735418,1.947134,3.754293,-1.730674,-3.002751,-8.853649,25,1,14,23,32,36,400,7,3,32.865571,-117.254157,-17.604000,-2455724.505110,-4767234.073444,3441436.083078,4.888065,4.886679,10.000402,54.769444,-10.273760,17.716913,-0.176880,0.008007,-0.464894,-0.867481,32901,32.865572,-117.254158,-21.439234,-2455723.133253,-4767231.209929,3441434.191969,1.701873
302557676669,308376257000,1420932774535411200,308376257000,535422000,25,1,14,23,32,40,536,0,29.129999,102.133003,0.733556,1.946636,3.755254,-1.076116,-3.353610,-9.839262,25,1,14,23,32,36,400,7,3,32.865571,-117.254157,-17.604000,-2455724.505110,-4767234.073444,3441436.083078,4.888065,4.886679,10.000402,54.477383,-9.916241,18.152643,-0.178794,0.003949,-0.462398,-0.868450,133,32.865572,-117.254158,-21.469282,-2455723.139912,-4767231.182913,3441434.169051,1.703163
302582237854,308401257000,1420932774560411136,308401257000,560422000,25,1,14,23,32,40,561,16,29.129999,102.120003,0.731275,1.949231,3.752834,-0.972016,-4.340361,-11.898730,25,1,14,23,32,36,400,7,3,32.865571,-117.254157,-17.604000,-2455724.505110,-4767234.073444,3441436.083078,4.888065,4.886679,10.000402,53.999119,-9.829825,18.625755,-0.182041,0.002136,-0.458706,-0.869739,133,32.865572,-117.254158,-21.498761,-2455723.147211,-4767231.156295,3441434.146180,1.704467
302607125687,308426257000,1420932774585411072,308426257000,585422000,25,1,14,23,32,40,586,16,29.129999,102.133003,0.734291,1.949021,3.751647,-2.190419,-5.090506,-12.532315,25,1,14,23,32,36,400,7,3,32.865571,-117.254157,-17.604000,-2455724.505110,-4767234.073444,3441436.083078,4.888065,4.886679,10.000402,53.111294,-10.604585,19.065620,-0.188250,0.007797,-0.452696,-0.871532,32901,32.865572,-117.254158,-21.526415,-2455723.155841,-4767231.131064,3441434.123823,1.705789
302631826520,308451257000,1420932774610411264,308451257000,610422000,25,1,14,23,32,40,611,16,29.129999,102.145004,0.739606,1.949604,3.755198,-4.375403,-5.085567,-11.101096,25,1,14,23,32,36,400,7,3,32.865571,-117.254157,-17.604000,-2455724.505110,-4767234.073444,3441436.083078,4.888065,4.886679,10.000402,51.930653,-11.995967,19.360273,-0.195446,0.019392,-0.445027,-0.873714,32901,32.865572,-117.254159,-21.551723,-2455723.165461,-4767231.107841,3441434.102321,1.706859
302657229520,308476257000,1420932774635411200,308476257000,635422000,25,1,14,23,32,40,636,0,29.129999,102.145004,0.747667,1.946864,3.759518,-5.312397,-4.492620,-9.606633,25,1,14,23,32,36,400,7,3,32.865571,-117.254157,-17.604000,-2455724.505110,-4767234.073444,3441436.083078,4.888065,4.886679,10.000402,50.838455,-13.212385,19.397062,-0.199821,0.030591,-0.437799,-0.876052,133,32.865572,-117.254159,-21.575256,-2455723.174321,-4767231.086734,3441434.081719,1.708485
302682620650,308501257000,1420932774660411136,308501257000,660422000,25,1,14,23,32,40,661,16,29.129999,102.145004,0.749702,1.942333,3.761019,-4.706448,-3.513099,-8.362893,25,1,14,23,32,36,600,7,3,32.865571,-117.254158,-17.664000,-2455724.635110,-4767233.973444,3441436.013078,4.876828,4.896091,10.007654,50.104313,-13.757157,19.164104,-0.199721,0.037006,-0.432591,-0.878412,133,32.865572,-117.254159,-21.451990,-2455723.243684,-4767231.164695,3441434.152429,1.691067
302706944724,308526256000,1420932774685410304,308526256000,685421000,25,1,14,23,32,40,686,16,29.129999,102.133003,0.748259,1.938249,3.763942,-3.188916,-2.852871,-7.666448,25,1,14,23,32,36,600,7,3,32.865571,-117.254158,-17.664000,-2455724.635110,-4767233.973444,3441436.013078,4.876828,4.896091,10.007654,49.809765,-13.568019,18.747286,-0.195773,0.037604,-0.430031,-0.880529,32901,32.865572,-117.254159,-21.474105,-2455723.249933,-4767231.145657,3441434.133443,1.692353
302732300502,308551257000,1420932774710411008,308551257000,710422000,25,1,14,23,32,40,711,16,29.115000,102.141006,0.743790,1.931702,3.765007,-1.702639,-2.796052,-7.985609,25,1,14,23,32,36,600,7,3,32.865571,-117.254158,-17.664000,-2455724.635110,-4767233.973444,3441436.013078,4.876828,4.896091,10.007654,49.770950,-13.106933,18.261332,-0.190430,0.035882,-0.429188,-0.882183,32901,32.865572,-117.254159,-21.496879,-2455723.255425,-4767231.126289,3441434.114234,1.693649
302756767891,308576257000,1420932774735411200,308576257000,735422000,25,1,14,23,32,40,736,0,29.129999,102.133003,0.740529,1.929732,3.764805,-1.263976,-2.519974,-8.076122,25,1,14,23,32,36,600,7,3,32.865571,-117.254158,-17.664000,-2455724.635110,-4767233.973444,3441436.013078,4.876828,4.896091,10.007654,49.737026,-12.890980,17.799416,-0.186113,0.035974,-0.428605,-0.883383,133,32.865572,-117.254159,-21.520430,-2455723.260810,-4767231.106366,3441434.094432,1.694957
302782101576,308601256000,1420932774760410112,308601256000,760421000,25,1,14,23,32,40,761,16,29.129999,102.133003,0.740961,1.928567,3.768627,-1.721601,-2.641849,-8.169975,25,1,14,23,32,36,600,7,3,32.865571,-117.254158,-17.664000,-2455724.635110,-4767233.973444,3441436.013078,4.876828,4.896091,10.007654,49.608849,-13.148443,17.441294,-0.184201,0.039538,-0.427703,-0.884069,133,32.865572,-117.254160,-21.544758,-2455723.266277,-4767231.085785,3441434.074046,1.696278
302806811668,308626257000,1420932774785411072,308626257000,785422000,25,1,14,23,32,40,786,16,29.129999,102.133003,0.745545,1.924803,3.771302,-2.143861,-2.490178,-8.052321,25,1,14,23,32,36,600,7,3,32.865571,-117.254158,-17.664000,-2455724.635110,-4767233.973444,3441436.013078,4.876828,4.896091,10.007654,49.404037,-13.820924,17.140472,-0.184121,0.046264,-0.426520,-0.884330,32901,32.865572,-117.254160,-21.569773,-2455723.271592,-4767231.064708,3441434.053183,1.697613
302832252391,308651257000,1420932774810411264,308651257000,810422000,25,1,14,23,32,40,811,16,29.129999,102.133003,0.748071,1.924387,3.774873,-2.738843,-2.436912,-7.992180,25,1,14,23,32,36,600,7,3,32.865571,-117.254158,-17.664000,-2455724.635110,-4767233.973444,3441436.013078,4.876828,4.896091,10.007654,49.249699,-14.624594,16.855694,-0.184612,0.053880,-0.425781,-0.884153,32901,32.865571,-117.254160,-21.595470,-2455723.276559,-4767231.043154,3441434.031968,1.698959
302856774983,308676257000,1420932774835410944,308676257000,835422000,25,1,14,23,32,40,836,0,29.129999,102.145004,0.755215,1.921615,3.777054,-2.950628,-2.351733,-8.049021,25,1,14,23,32,36,800,7,3,32.865570,-117.254160,-17.663000,-2455724.785110,-4767233.933444,3441435.973078,4.867160,4.907442,10.018497,49.226059,-15.323910,16.551960,-0.184646,0.060537,-0.425918,-0.883648,133,32.865571,-117.254160,-21.621807,-2455723.280937,-4767231.021192,3441434.010553,1.700318
302882387983,308701257000,1420932774860411136,308701257000,860422000,25,1,14,23,32,40,861,16,29.129999,102.145004,0.758910,1.920465,3.777309,-2.726652,-2.296525,-8.031022,25,1,14,23,32,36,800,7,3,32.865570,-117.254160,-17.663000,-2455724.785110,-4767233.933444,3441435.973078,4.867160,4.907442,10.018497,49.354012,-15.852269,16.231796,-0.184053,0.065670,-0.427062,-0.882853,133,32.865572,-117.254160,-21.477912,-2455723.357272,-4767231.104511,3441434.106962,1.683132
302906755298,308726257000,1420932774885411328,308726257000,885422000,25,1,14,23,32,40,886,16,29.129999,102.133003,0.764004,1.919564,3.776370,-2.513483,-2.212746,-8.313323,25,1,14,23,32,36,800,7,3,32.865570,-117.254160,-17.663000,-2455724.785110,-4767233.933444,3441435.973078,4.867160,4.907442,10.018497,49.593094,-16.289667,15.944321,-0.183479,0.069790,-0.428992,-0.881720,133,32.865571,-117.254161,-21.504819,-2455723.360918,-4767231.081941,3441434.085850,1.684426
302932204279,308751257000,1420932774910411008,308751257000,910422000,25,1,14,23,32,40,911,16,29.129999,102.133003,0.765157,1.920566,3.779204,-2.450744,-2.462797,-8.442079,25,1,14,23,32,36,800,7,3,32.865570,-117.254160,-17.663000,-2455724.785110,-4767233.933444,3441435.973078,4.867160,4.907442,10.018497,49.924858,-16.712803,15.740623,-0.183577,0.073338,-0.431652,-0.880112,32901,32.865571,-117.254161,-21.532238,-2455723.364413,-4767231.058940,3441434.064497,1.685732
302957105724,308776257000,1420932774935411200,308776257000,935422000,25,1,14,23,32,40,936,0,29.129999,102.133003,0.769789,1.921365,3.780852,-2.251104,-2.710298,-8.605553,25,1,14,23,32,36,800,7,3,32.865570,-117.254160,-17.663000,-2455724.785110,-4767233.933444,3441435.973078,4.867160,4.907442,10.018497,50.329262,-17.197483,15.571210,-0.184222,0.077120,-0.434897,-0.878054,32901,32.865571,-117.254161,-21.560072,-2455723.367845,-4767231.035644,3441434.042827,1.687050
302982470650,308801257000,1420932774960411136,308801257000,960422000,25,1,14,23,32,40,961,16,29.129999,102.133003,0.774188,1.921920,3.782503,-2.200081,-2.758920,-8.487815,25,1,14,23,32,36,800,7,3,32.865570,-117.254160,-17.663000,-2455724.785110,-4767233.933444,3441435.973078,4.867160,4.907442,10.018497,50.785130,-17.761908,15.370471,-0.184970,0.081556,-0.438522,-0.875690,133,32.865571,-117.254161,-21.588244,-2455723.371376,-4767231.012191,3441434.020682,1.688382
303006951039,308826256000,1420932774985410304,308826256000,985421000,25,1,14,23,32,40,986,16,29.134998,102.133003,0.780678,1.922494,3.782964,-2.315687,-2.741165,-8.552873,25,1,14,23,32,36,800,7,3,32.865570,-117.254160,-17.663000,-2455724.785110,-4767233.933444,3441435.973078,4.867160,4.907442,10.018497,51.299095,-18.372881,15.122936,-0.185606,0.086434,-0.442536,-0.873065,133,32.865571,-117.254161,-21.616807,-2455723.375039,-4767230.988570,3441433.997954,1.689728
303032226483,308851257000,1420932775010411264,308851257000,10424000,25,1,14,23,32,41,11,16,29.115000,102.116005,0.783227,1.923507,3.784847,-2.258832,-2.550156,-8.833898,25,1,14,23,32,36,800,7,3,32.865570,-117.254160,-17.663000,-2455724.785110,-4767233.933444,3441435.973078,4.867160,4.907442,10.018497,51.815456,-19.081810,14.844934,-0.186408,0.092181,-0.446529,-0.870268,32901,32.865571,-117.254161,-21.645705,-2455723.378864,-4767230.964803,3441433.974693,1.691090
303056568483,308876257000,1420932775035411200,308876257000,35424000,25,1,14,23,32,41,36,0,29.129999,102.133003,0.790872,1.924345,3.786254,-2.422744,-2.502577,-8.768341,25,1,14,23,32,36,800,7,3,32.865570,-117.254160,-17.663000,-2455724.785110,-4767233.933444,3441435.973078,4.867160,4.907442,10.018497,52.332321,-19.861952,14.519896,-0.187163,0.098655,-0.450447,-0.867373,32901,32.865571,-117.254161,-21.674854,-2455723.382961,-4767230.940847,3441433.951038,1.692190
303082104631,308901257000,1420932775060413952,308901257000,60424000,25,1,14,23,32,41,61,16,29.129999,102.133003,0.796652,1.923223,3.786507,-2.760575,-2.544432,-8.820265,25,1,14,23,32,37,0,7,3,32.865570,-117.254162,-17.657000,-2455724.915110,-4767233.893444,3441435.953078,4.859495,4.919038,10.036012,52.902565,-20.579651,14.092952,-0.187032,0.104955,-0.454581,-0.864500,133,32.865571,-117.254162,-21.541567,-2455723.443186,-4767231.007600,3441434.062113,1.674987
303106727242,308926257000,1420932775085413632,308926257000,85424000,25,1,14,23,32,41,86,16,29.129999,102.133003,0.803115,1.921398,3.787959,-2.645521,-2.389778,-9.027622,25,1,14,23,32,37,0,7,3,32.865570,-117.254162,-17.657000,-2455724.915110,-4767233.893444,3441435.953078,4.859495,4.919038,10.036012,53.536877,-21.189497,13.539938,-0.185687,0.110825,-0.458972,-0.861732,133,32.865571,-117.254162,-21.570510,-2455723.448183,-4767230.983525,3441434.038364,1.676564
303132087076,308951256000,1420932775110412800,308951256000,110423000,25,1,14,23,32,41,111,16,29.132498,102.133003,0.806116,1.921212,3.789624,-2.644266,-2.184435,-9.333914,25,1,14,23,32,37,0,7,3,32.865570,-117.254162,-17.657000,-2455724.915110,-4767233.893444,3441435.953078,4.859495,4.919038,10.036012,54.209263,-21.771204,12.902537,-0.183717,0.116773,-0.463474,-0.858955,32901,32.865571,-117.254162,-21.599534,-2455723.453534,-4767230.959353,3441434.014347,1.677893
303157442372,308976257000,1420932775135413760,308976257000,135424000,25,1,14,23,32,41,136,0,29.129999,102.133003,0.812332,1.918675,3.792515,-3.017440,-2.106065,-9.403196,25,1,14,23,32,37,0,7,3,32.865570,-117.254162,-17.657000,-2455724.915110,-4767233.893444,3441435.953078,4.859495,4.919038,10.036012,54.883598,-22.362946,12.242844,-0.181697,0.122906,-0.467873,-0.856139,32901,32.865571,-117.254162,-21.628494,-2455723.459504,-4767230.935115,3441433.990100,1.679236
303181753168,309001257000,1420932775160413696,309001257000,160424000,25,1,14,23,32,41,161,16,29.129999,102.133003,0.817862,1.916359,3.794213,-3.448794,-2.058979,-9.390142,25,1,14,23,32,37,0,7,3,32.865570,-117.254162,-17.657000,-2455724.915110,-4767233.893444,3441435.953078,4.859495,4.919038,10.036012,55.574203,-22.888641,11.573915,-0.179457,0.128570,-0.472289,-0.853351,133,32.865571,-117.254162,-21.657274,-2455723.466011,-4767230.910923,3441433.965741,1.680593
303207204150,309026256000,1420932775185412864,309026256000,185423000,25,1,14,23,32,41,186,16,29.129999,102.133003,0.821077,1.913029,3.793554,-3.654184,-2.040833,-9.410183,25,1,14,23,32,37,0,7,3,32.865570,-117.254162,-17.657000,-2455724.915110,-4767233.893444,3441435.953078,4.859495,4.919038,10.036012,56.273319,-23.275311,10.919464,-0.176873,0.133130,-0.476711,-0.850728,133,32.865571,-117.254163,-21.685801,-2455723.472882,-4767230.886920,3441433.941331,1.681964
303231595853,309051257000,1420932775210413568,309051257000,210424000,25,1,14,23,32,41,211,16,29.129999,102.133003,0.822907,1.911874,3.796188,-3.651748,-2.022914,-9.585244,25,1,14,23,32,37,0,7,3,32.865570,-117.254162,-17.657000,-2455724.915110,-4767233.893444,3441435.953078,4.859495,4.919038,10.036012,56.974365,-23.554985,10.280735,-0.174052,0.136843,-0.481117,-0.848237,32901,32.865571,-117.254163,-21.714022,-2455723.480081,-4767230.863182,3441433.916887,1.683350
303257321076,309076257000,1420932775235413760,309076257000,235424000,25,1,14,23,32,41,236,0,29.129999,102.120003,0.828899,1.909322,3.797652,-3.951213,-2.058061,-9.841475,25,1,14,23,32,37,0,7,3,32.865570,-117.254162,-17.657000,-2455724.915110,-4767233.893444,3441435.953078,4.859495,4.919038,10.036012,57.642906,-23.808306,9.681462,-0.171430,0.140272,-0.485282,-0.845835,32901,32.865571,-117.254163,-21.741811,-2455723.487692,-4767230.839806,3441433.892449,1.684470
303281887076,309101257000,1420932775260413952,309101257000,260424000,25,1,14,23,32,41,261,16,29.134998,102.120003,0.830737,1.907663,3.797679,-4.224617,-2.348350,-10.118670,25,1,14,23,32,37,200,7,3,32.865570,-117.254163,-17.702000,-2455725.025110,-4767233.813444,3441435.903078,4.851282,4.930285,10.046334,58.287991,-24.135277,9.080331,-0.169106,0.144327,-0.489204,-0.843358,32901,32.865571,-117.254163,-21.599163,-2455723.566006,-4767230.913653,3441433.998194,1.667555
303306313279,309126257000,1420932775285413632,309126257000,285424000,25,1,14,23,32,41,286,16,29.129999,102.145004,0.835114,1.905810,3.799134,-4.232424,-2.194395,-10.267910,25,1,14,23,32,37,200,7,3,32.865570,-117.254163,-17.702000,-2455725.025110,-4767233.813444,3441435.903078,4.851282,4.930285,10.046334,58.896542,-24.659393,8.439845,-0.167298,0.150101,-0.492679,-0.840683,133,32.865571,-117.254164,-21.624839,-2455723.574946,-4767230.891870,3441433.974516,1.669158
303332082483,309151257000,1420932775310413824,309151257000,310424000,25,1,14,23,32,41,311,16,29.129999,102.133003,0.839938,1.902524,3.801087,-4.455034,-1.872620,-10.081484,25,1,14,23,32,37,200,7,3,32.865570,-117.254163,-17.702000,-2455725.025110,-4767233.813444,3441435.903078,4.851282,4.930285,10.046334,59.455570,-25.370785,7.822592,-0.166429,0.157253,-0.495657,-0.837793,133,32.865571,-117.254164,-21.649603,-2455723.584434,-4767230.870888,3441433.951027,1.670512
303356939446,309176257000,1420932775335413760,309176257000,335424000,25,1,14,23,32,41,336,0,29.137499,102.133003,0.847343,1.901665,3.801334,-4.898628,-1.743203,-9.961333,25,1,14,23,32,37,200,7,3,32.865570,-117.254163,-17.702000,-2455725.025110,-4767233.813444,3441435.903078,4.851282,4.930285,10.046334,59.933392,-26.223423,7.310734,-0.166872,0.165109,-0.498014,-0.834790,32901,32.865571,-117.254164,-21.673507,-2455723.594399,-4767230.850688,3441433.927709,1.671881
303381336761,309201256000,1420932775360412928,309201256000,360423000,25,1,14,23,32,41,361,16,29.134998,102.133003,0.853807,1.899836,3.802311,-5.527543,-1.562388,-9.764566,25,1,14,23,32,37,200,7,3,32.865570,-117.254163,-17.702000,-2455725.025110,-4767233.813444,3441435.903078,4.851282,4.930285,10.046334,60.254997,-27.170118,6.980372,-0.168859,0.173080,-0.499346,-0.831976,32901,32.865571,-117.254164,-21.696511,-2455723.604682,-4767230.831340,3441433.904653,1.673266
303406708650,309226256000,1420932775385412608,309226256000,385423000,25,1,14,23,32,41,386,16,29.129999,102.133003,0.860768,1.901380,3.802993,-5.634525,-1.774822,-9.196407,25,1,14,23,32,37,200,7,3,32.865570,-117.254163,-17.702000,-2455725.025110,-4767233.813444,3441435.903078,4.851282,4.930285,10.046334,60.394974,-28.111355,6.851057,-0.172035,0.180378,-0.499593,-0.829623,133,32.865571,-117.254164,-21.718602,-2455723.615025,-4767230.812916,3441433.881965,1.674666
303432066687,309251257000,1420932775410413824,309251257000,410424000,25,1,14,23,32,41,411,16,29.129999,102.133003,0.864224,1.900239,3.804674,-5.320953,-1.887221,-8.094773,25,1,14,23,32,37,200,7,3,32.865570,-117.254163,-17.702000,-2455725.025110,-4767233.813444,3441435.903078,4.851282,4.930285,10.046334,60.405659,-28.819504,6.767054,-0.174374,0.185941,-0.499081,-0.828214,133,32.865570,-117.254164,-21.740105,-2455723.625210,-4767230.795317,3441433.859337,1.676081
303456707557,309276257000,1420932775435413760,309276257000,435424000,25,1,14,23,32,41,436,0,29.137499,102.133003,0.868625,1.899324,3.803260,-5.045546,-1.605790,-7.430938,25,1,14,23,32,37,400,7,3,32.865569,-117.254165,-17.663000,-2455725.185110,-4767233.803444,3441435.873078,4.845625,4.948759,10.064927,60.367886,-29.033968,6.592653,-0.173938,0.188335,-0.498380,-0.828187,32901,32.865570,-117.254165,-21.761652,-2455723.634939,-4767230.778177,3441433.836319,1.677511
303482217427,309301257000,1420932775460413696,309301257000,460424000,25,1,14,23,32,41,461,16,29.134998,102.133003,0.866523,1.898101,3.804233,-4.570971,-1.147479,-7.608290,25,1,14,23,32,37,400,7,3,32.865569,-117.254165,-17.663000,-2455725.185110,-4767233.803444,3441435.873078,4.845625,4.948759,10.064927,60.363167,-28.827143,6.293197,-0.170910,0.188123,-0.497995,-0.829096,32901,32.865570,-117.254165,-21.638339,-2455723.685142,-4767230.872238,3441433.898544,1.660974
303506778705,309326256000,1420932775485412864,309326256000,485423000,25,1,14,23,32,41,486,16,29.129999,102.133003,0.864411,1.894939,3.803574,-4.188073,-0.787062,-7.960727,25,1,14,23,32,37,400,7,3,32.865569,-117.254165,-17.663000,-2455725.185110,-4767233.803444,3441435.873078,4.845625,4.948759,10.064927,60.377838,-28.557652,5.964019,-0.167434,0.187549,-0.497749,-0.830083,133,32.865570,-117.254165,-21.660371,-2455723.693795,-4767230.855414,3441433.874962,1.662618
303532148501,309351257000,1420932775510413824,309351257000,510424000,25,1,14,23,32,41,511,16,29.129999,102.133003,0.862520,1.891311,3.804350,-4.311765,-0.493269,-8.091201,25,1,14,23,32,37,400,7,3,32.865569,-117.254165,-17.663000,-2455725.185110,-4767233.803444,3441435.873078,4.845625,4.948759,10.064927,60.337704,-28.460011,5.728376,-0.165255,0.187912,-0.497141,-0.830801,133,32.865570,-117.254165,-21.682863,-2455723.702470,-4767230.838115,3441433.851168,1.664002
303556466390,309376257000,1420932775535413760,309376257000,535424000,25,1,14,23,32,41,536,0,29.137499,102.133003,0.862277,1.891081,3.806018,-4.677140,-0.480998,-8.113992,25,1,14,23,32,37,400,7,3,32.865569,-117.254165,-17.663000,-2455725.185110,-4767233.803444,3441435.873078,4.845625,4.948759,10.064927,60.267887,-28.557104,5.647457,-0.164956,0.189078,-0.496432,-0.831020,32901,32.865570,-117.254165,-21.705715,-2455723.711040,-4767230.820437,3441433.827309,1.665398
