systemTimeStamp,timeStartup,timeGps,timeSyncIn,timeGpsPps,utcYear,utcMonth,utcDay,utcHour,utcMinute,utcSecond,utcFracsec,imuStatus,temperature,pressure,magX,magY,magZ,accelX,accelY,accelZ,gps1UtcYear,gps1UtcMonth,gps1UtcDay,gps1UtcHour,gps1UtcMinute,gps1UtcSecond,gps1UtcFracsec,gnss1NumSats,gnss1Fix,gnss1PosLat,gnss1PosLon,gnss1PosAlt,gnss1PosEcefX,gnss1PosEcefY,gnss1PosEcefY,gnss1PosUncertaintyN,gnss1PosUncertaintyE,gnss1PosUncertaintyD,yaw,pitch,roll,quatX,quatY,quatZ,quatW,insStatus,lat,lon,alt,posEcefX,posEcefY,posEcefZ,posU
3435028007673,3440851257000,1422735110950129152,3440851257000,950138000,25,2,4,20,11,32,950,16,23.330000,101.741005,0.156228,0.551098,-0.063693,6.440435,0.037059,7.363208,25,2,4,20,11,32,799,9,3,32.866368,-117.254146,-36.941000,-2455694.235111,-4767177.443445,3441499.833076,13.826033,36.869324,43.474327,74.005836,41.220333,-179.856369,0.747757,0.562982,-0.281821,0.210921,133,32.866362,-117.254135,-37.075573,-2455693.480932,-4767178.212969,3441499.316991,4.653295
3435051313247,3440876257000,1422735110975129088,3440876257000,975138000,25,2,4,20,11,32,975,0,23.330002,101.729004,0.156446,0.550390,-0.062493,6.461814,0.017212,7.352889,25,2,4,20,11,32,799,9,3,32.866368,-117.254146,-36.941000,-2455694.235111,-4767177.443445,3441499.833076,13.826033,36.869324,43.474327,74.006409,41.220169,-179.855453,0.747756,0.562984,-0.281823,0.210915,32901,32.866362,-117.254135,-37.074975,-2455693.478741,-4767178.215162,3441499.316628,4.657048
3435075562432,3440901257000,1422735111000129280,3440901257000,139000,25,2,4,20,11,33,0,16,23.320002,101.729004,0.156689,0.551108,-0.063218,6.445717,0.050384,7.355240,25,2,4,20,11,32,799,9,3,32.866368,-117.254146,-36.941000,-2455694.235111,-4767177.443445,3441499.833076,13.826033,36.869324,43.474327,74.006233,41.221508,-179.855392,0.747754,0.562980,-0.281833,0.210921,32901,32.866362,-117.254135,-37.074455,-2455693.476465,-4767178.217251,3441499.316326,4.660057
3435100861618,3440926257000,1422735111025128960,3440926257000,25139000,25,2,4,20,11,33,25,16,23.320002,101.716003,0.155081,0.551556,-0.064651,6.447669,0.012164,7.358886,25,2,4,20,11,32,799,9,3,32.866368,-117.254146,-36.941000,-2455694.235111,-4767177.443445,3441499.833076,13.826033,36.869324,43.474327,74.004593,41.221188,-179.856903,0.747760,0.562974,-0.281826,0.210925,133,32.866362,-117.254135,-37.073888,-2455693.474266,-4767178.219375,3441499.316006,4.664580
3435125104599,3440951256000,1422735111050130176,3440951256000,50138000,25,2,4,20,11,33,50,16,23.330000,101.729004,0.156007,0.551568,-0.064652,6.449902,0.006844,7.380575,25,2,4,20,11,33,0,9,3,32.866368,-117.254146,-36.910000,-2455694.255111,-4767177.443445,3441499.863076,13.842433,36.933533,43.591892,74.004456,41.220306,-179.857590,0.747761,0.562976,-0.281817,0.210925,133,32.866362,-117.254135,-37.073458,-2455693.471934,-4767178.221437,3441499.315615,4.667602
3435150395525,3440976257000,1422735111075131136,3440976257000,75139000,25,2,4,20,11,33,75,0,23.324999,101.712006,0.157171,0.551817,-0.065607,6.459429,0.027825,7.376661,25,2,4,20,11,33,0,9,3,32.866368,-117.254146,-36.910000,-2455694.255111,-4767177.443445,3441499.863076,13.842433,36.933533,43.591892,74.004051,41.221397,-179.857605,0.747761,0.562972,-0.281825,0.210930,32901,32.866363,-117.254135,-37.071025,-2455693.460730,-4767178.225235,3441499.322813,4.659389
3435175696044,3441001257000,1422735111100131072,3441001257000,100139000,25,2,4,20,11,33,100,16,23.330000,101.729004,0.155748,0.549656,-0.062955,6.472080,0.021768,7.334239,25,2,4,20,11,33,0,9,3,32.866368,-117.254146,-36.910000,-2455694.255111,-4767177.443445,3441499.863076,13.842433,36.933533,43.591892,74.002678,41.220119,-179.858078,0.747770,0.562966,-0.281817,0.210923,32901,32.866362,-117.254135,-37.070547,-2455693.458407,-4767178.227306,3441499.322489,4.663140
3435200987988,3441026257000,1422735111125131008,3441026257000,125139000,25,2,4,20,11,33,125,16,23.320002,101.729004,0.156682,0.550387,-0.063205,6.462211,-0.001081,7.370075,25,2,4,20,11,33,0,9,3,32.866368,-117.254146,-36.910000,-2455694.255111,-4767177.443445,3441499.863076,13.842433,36.933533,43.591892,74.001678,41.220810,-179.858475,0.747772,0.562960,-0.281821,0.210927,133,32.866362,-117.254135,-37.069951,-2455693.456170,-4767178.229472,3441499.322195,4.666899
3435225232506,3441051257000,1422735111150130944,3441051257000,150139000,25,2,4,20,11,33,150,16,23.314999,101.725006,0.156456,0.550133,-0.064626,6.448835,-0.004934,7.375871,25,2,4,20,11,33,0,9,3,32.866368,-117.254146,-36.910000,-2455694.255111,-4767177.443445,3441499.863076,13.842433,36.933533,43.591892,74.001831,41.220001,-179.858902,0.747773,0.562963,-0.281814,0.210926,133,32.866362,-117.254135,-37.069385,-2455693.453773,-4767178.231689,3441499.321885,4.670666
3435250525173,3441076257000,1422735111175131136,3441076257000,175139000,25,2,4,20,11,33,175,0,23.330002,101.716003,0.157377,0.549909,-0.064147,6.463954,0.004033,7.349145,25,2,4,20,11,33,0,9,3,32.866368,-117.254146,-36.910000,-2455694.255111,-4767177.443445,3441499.863076,13.842433,36.933533,43.591892,74.001640,41.218941,-179.859314,0.747775,0.562965,-0.281805,0.210923,32901,32.866362,-117.254135,-37.068776,-2455693.451545,-4767178.233837,3441499.321631,4.674441
3435275818192,3441101257000,1422735111200131072,3441101257000,200139000,25,2,4,20,11,33,200,16,23.330000,101.729004,0.155312,0.551317,-0.064885,6.451032,0.017738,7.337439,25,2,4,20,11,33,0,9,3,32.866368,-117.254146,-36.910000,-2455694.255111,-4767177.443445,3441499.863076,13.842433,36.933533,43.591892,73.999687,41.218925,-179.860001,0.747784,0.562954,-0.281805,0.210923,32901,32.866362,-117.254135,-37.068230,-2455693.449220,-4767178.236011,3441499.321294,4.678224
3435300058636,3441126257000,1422735111225131008,3441126257000,225139000,25,2,4,20,11,33,225,16,23.309999,101.712006,0.154383,0.550821,-0.065113,6.449413,0.009263,7.366777,25,2,4,20,11,33,0,9,3,32.866368,-117.254146,-36.910000,-2455694.255111,-4767177.443445,3441499.863076,13.842433,36.933533,43.591892,73.999031,41.217316,-179.859879,0.747791,0.562952,-0.281796,0.210912,133,32.866362,-117.254135,-37.067622,-2455693.446991,-4767178.238215,3441499.320961,4.682015
3435325360118,3441151257000,1422735111250131200,3441151257000,250139000,25,2,4,20,11,33,250,16,23.325001,101.716003,0.156001,0.551334,-0.063935,6.453371,0.012232,7.348950,25,2,4,20,11,33,199,9,3,32.866369,-117.254145,-36.977000,-2455694.125111,-4767177.433445,3441499.853076,13.854735,36.997845,43.708092,73.998360,41.216419,-179.859970,0.747796,0.562950,-0.281792,0.210907,133,32.866362,-117.254135,-37.067219,-2455693.444599,-4767178.240312,3441499.320513,4.685054
3435350671266,3441176257000,1422735111275130880,3441176257000,275139000,25,2,4,20,11,33,275,0,23.324999,101.712006,0.156452,0.550138,-0.063914,6.444524,-0.009070,7.365200,25,2,4,20,11,33,199,9,3,32.866369,-117.254145,-36.977000,-2455694.125111,-4767177.433445,3441499.853076,13.854735,36.997845,43.708092,73.998528,41.215504,-179.859573,0.747799,0.562952,-0.281787,0.210900,32901,32.866363,-117.254135,-37.063555,-2455693.428676,-4767178.234122,3441499.347068,4.675938
3435375986525,3441201257000,1422735111300131072,3441201257000,300139000,25,2,4,20,11,33,300,16,23.309999,101.712006,0.157153,0.550382,-0.064631,6.468256,0.016965,7.363822,25,2,4,20,11,33,199,9,3,32.866369,-117.254145,-36.977000,-2455694.125111,-4767177.433445,3441499.853076,13.854735,36.997845,43.708092,73.996719,41.214226,-179.860641,0.747809,0.562945,-0.281777,0.210896,32901,32.866363,-117.254135,-37.062957,-2455693.426320,-4767178.236289,3441499.346859,4.679705
3435400245284,3441226257000,1422735111325131264,3441226257000,325139000,25,2,4,20,11,33,325,16,23.330000,101.716003,0.156679,0.549905,-0.063434,6.476709,-0.001642,7.356278,25,2,4,20,11,33,199,9,3,32.866369,-117.254145,-36.977000,-2455694.125111,-4767177.433445,3441499.853076,13.854735,36.997845,43.708092,73.995331,41.217522,-179.862778,0.747803,0.562935,-0.281790,0.210923,32901,32.866363,-117.254135,-37.062344,-2455693.423946,-4767178.238487,3441499.346647,4.683481
3435425557043,3441251257000,1422735111350130944,3441251257000,350139000,25,2,4,20,11,33,350,16,23.325001,101.716003,0.156215,0.549900,-0.063197,6.460901,0.032227,7.348694,25,2,4,20,11,33,199,9,3,32.866369,-117.254145,-36.977000,-2455694.125111,-4767177.433445,3441499.853076,13.854735,36.997845,43.708092,73.993622,41.218174,-179.863220,0.747809,0.562924,-0.281796,0.210925,133,32.866363,-117.254135,-37.061742,-2455693.421590,-4767178.240684,3441499.346402,4.687265
3435450880932,3441276257000,1422735111375131136,3441276257000,375139000,25,2,4,20,11,33,375,0,23.315001,101.729004,0.156446,0.549417,-0.063901,6.462544,0.014625,7.374221,25,2,4,20,11,33,199,9,3,32.866369,-117.254145,-36.977000,-2455694.125111,-4767177.433445,3441499.853076,13.854735,36.997845,43.708092,73.992516,41.219173,-179.862137,0.747814,0.562912,-0.281810,0.210920,133,32.866363,-117.254135,-37.061061,-2455693.419272,-4767178.242989,3441499.346129,4.691058
3435475144525,3441301257000,1422735111400131072,3441301257000,400139000,25,2,4,20,11,33,400,16,23.319998,101.725006,0.155294,0.550369,-0.063205,6.454212,0.039318,7.386473,25,2,4,20,11,33,199,9,3,32.866369,-117.254145,-36.977000,-2455694.125111,-4767177.433445,3441499.853076,13.854735,36.997845,43.708092,73.992409,41.218239,-179.862183,0.747817,0.562913,-0.281803,0.210915,32901,32.866363,-117.254135,-37.060564,-2455693.416819,-4767178.245104,3441499.345874,4.694858
3435500455691,3441326257000,1422735111425131008,3441326257000,425139000,25,2,4,20,11,33,425,16,23.330000,101.716003,0.154378,0.551804,-0.062518,6.452450,0.018139,7.357162,25,2,4,20,11,33,199,9,3,32.866369,-117.254145,-36.977000,-2455694.125111,-4767177.433445,3441499.853076,13.854735,36.997845,43.708092,73.992645,41.218166,-179.863571,0.747814,0.562918,-0.281796,0.210925,32901,32.866363,-117.254135,-37.059963,-2455693.414454,-4767178.247313,3441499.345618,4.698667
3435526824488,3441351256000,1422735111450129920,3441351256000,450138000,25,2,4,20,11,33,450,16,23.314999,101.737007,0.155068,0.551089,-0.062980,6.465749,0.025682,7.363723,25,2,4,20,11,33,399,9,3,32.866369,-117.254146,-36.870000,-2455694.185111,-4767177.493445,3441499.923076,13.868933,37.078522,43.824390,73.993095,41.219650,-179.864120,0.747807,0.562920,-0.281802,0.210937,133,32.866362,-117.254134,-37.058210,-2455693.385386,-4767178.278870,3441499.326029,4.701720
3435550024228,3441376257000,1422735111475131136,3441376257000,475139000,25,2,4,20,11,33,475,0,23.309998,101.712006,0.156222,0.549403,-0.065326,6.450092,0.026938,7.358167,25,2,4,20,11,33,399,9,3,32.866369,-117.254146,-36.870000,-2455694.185111,-4767177.493445,3441499.923076,13.868933,37.078522,43.824390,73.992966,41.220669,-179.864182,0.747805,0.562917,-0.281808,0.210942,133,32.866362,-117.254134,-37.057446,-2455693.382940,-4767178.281376,3441499.325724,4.690519
3435575332228,3441401257000,1422735111500131072,3441401257000,500139000,25,2,4,20,11,33,500,16,23.330000,101.716003,0.156468,0.551577,-0.064415,6.462134,0.044690,7.341013,25,2,4,20,11,33,399,9,3,32.866369,-117.254146,-36.870000,-2455694.185111,-4767177.493445,3441499.923076,13.868933,37.078522,43.824390,73.992081,41.220314,-179.864685,0.747809,0.562913,-0.281805,0.210941,32901,32.866362,-117.254134,-37.056810,-2455693.380409,-4767178.283757,3441499.325414,4.694293
3435600638636,3441426257000,1422735111525131008,3441426257000,525139000,25,2,4,20,11,33,525,16,23.330000,101.716003,0.155298,0.550363,-0.063918,6.455229,0.008855,7.375067,25,2,4,20,11,33,399,9,3,32.866369,-117.254146,-36.870000,-2455694.185111,-4767177.493445,3441499.923076,13.868933,37.078522,43.824390,73.992676,41.220436,-179.862732,0.747809,0.562912,-0.281815,0.210931,32901,32.866362,-117.254134,-37.056219,-2455693.377924,-4767178.286079,3441499.325070,4.698076
3435625947914,3441451257000,1422735111550131200,3441451257000,550139000,25,2,4,20,11,33,550,16,23.314999,101.725006,0.157143,0.549665,-0.064143,6.436449,-0.008812,7.371503,25,2,4,20,11,33,399,9,3,32.866369,-117.254146,-36.870000,-2455694.185111,-4767177.493445,3441499.923076,13.868933,37.078522,43.824390,73.990715,41.222237,-179.864838,0.747811,0.562901,-0.281820,0.210948,133,32.866362,-117.254134,-37.055629,-2455693.375391,-4767178.288418,3441499.324733,4.701867
3435650209969,3441476257000,1422735111575131136,3441476257000,575139000,25,2,4,20,11,33,575,0,23.324999,101.725006,0.156222,0.550133,-0.064152,6.439387,0.014230,7.356280,25,2,4,20,11,33,399,9,3,32.866369,-117.254146,-36.870000,-2455694.185111,-4767177.493445,3441499.923076,13.868933,37.078522,43.824390,73.989960,41.221378,-179.865845,0.747815,0.562900,-0.281810,0.210949,133,32.866362,-117.254134,-37.055049,-2455693.372837,-4767178.290737,3441499.324421,4.705665
3435676578784,3441501257000,1422735111600131072,3441501257000,600139000,25,2,4,20,11,33,600,16,23.320002,101.716003,0.155071,0.550110,-0.065101,6.456829,0.020648,7.370821,25,2,4,20,11,33,399,9,3,32.866369,-117.254146,-36.870000,-2455694.185111,-4767177.493445,3441499.923076,13.868933,37.078522,43.824390,73.990067,41.220509,-179.865021,0.747818,0.562901,-0.281809,0.210939,32901,32.866362,-117.254134,-37.054432,-2455693.370365,-4767178.293114,3441499.324040,4.709472
3435699784265,3441526257000,1422735111625131008,3441526257000,625139000,25,2,4,20,11,33,625,16,23.330000,101.729004,0.155087,0.552278,-0.064427,6.463602,0.007988,7.397268,25,2,4,20,11,33,399,9,3,32.866369,-117.254146,-36.870000,-2455694.185111,-4767177.493445,3441499.923076,13.868933,37.078522,43.824390,73.990280,41.221989,-179.865402,0.747813,0.562900,-0.281816,0.210950,32901,32.866362,-117.254134,-37.053847,-2455693.367793,-4767178.295431,3441499.323752,4.713286
3435726145543,3441551256000,1422735111650129920,3441551256000,650138000,25,2,4,20,11,33,650,16,23.325001,101.729004,0.156222,0.550135,-0.063914,6.440492,0.009695,7.381054,25,2,4,20,11,33,599,9,3,32.866369,-117.254145,-36.910000,-2455694.125111,-4767177.493445,3441499.893076,13.884095,37.162910,43.931511,73.989250,41.223087,-179.866592,0.747813,0.562894,-0.281819,0.210960,32901,32.866362,-117.254134,-37.053285,-2455693.365333,-4767178.297735,3441499.323362,4.716345
3435750397210,3441576257000,1422735111675131136,3441576257000,675139000,25,2,4,20,11,33,675,0,23.314999,101.729004,0.156000,0.550361,-0.065343,6.445556,0.016183,7.364562,25,2,4,20,11,33,599,9,3,32.866369,-117.254145,-36.910000,-2455694.125111,-4767177.493445,3441499.893076,13.884095,37.162910,43.931511,73.986076,41.223320,-179.869247,0.747823,0.562880,-0.281813,0.210971,133,32.866363,-117.254135,-37.043048,-2455693.430682,-4767178.260850,3441499.346660,4.693303
3435775701228,3441601257000,1422735111700131072,3441601257000,700139000,25,2,4,20,11,33,700,16,23.330000,101.716003,0.155996,0.550855,-0.063689,6.469321,0.020983,7.387774,25,2,4,20,11,33,599,9,3,32.866369,-117.254145,-36.910000,-2455694.125111,-4767177.493445,3441499.893076,13.884095,37.162910,43.931511,73.985588,41.223553,-179.869720,0.747824,0.562877,-0.281814,0.210974,133,32.866363,-117.254135,-37.042492,-2455693.428392,-4767178.262964,3441499.346398,4.697021
3435801010376,3441626257000,1422735111725131008,3441626257000,725139000,25,2,4,20,11,33,725,16,23.330000,101.716003,0.156205,0.549672,-0.061768,6.458801,0.047620,7.345786,25,2,4,20,11,33,599,9,3,32.866369,-117.254145,-36.910000,-2455694.125111,-4767177.493445,3441499.893076,13.884095,37.162910,43.931511,73.986343,41.222721,-179.868988,0.747823,0.562882,-0.281810,0.210967,32901,32.866363,-117.254135,-37.041888,-2455693.426052,-4767178.265215,3441499.346072,4.700746
3435826322506,3441651257000,1422735111750131200,3441651257000,750139000,25,2,4,20,11,33,750,16,23.314999,101.712006,0.155978,0.548688,-0.064126,6.451676,0.035648,7.370365,25,2,4,20,11,33,599,9,3,32.866369,-117.254145,-36.910000,-2455694.125111,-4767177.493445,3441499.893076,13.884095,37.162910,43.931511,73.987709,41.224735,-179.867264,0.747815,0.562883,-0.281829,0.210969,32901,32.866363,-117.254135,-37.041271,-2455693.423723,-4767178.267438,3441499.345801,4.704479
3435851633006,3441676257000,1422735111775130880,3441676257000,775139000,25,2,4,20,11,33,775,0,23.315001,101.729004,0.156017,0.551798,-0.066082,6.457952,0.007990,7.365010,25,2,4,20,11,33,599,9,3,32.866369,-117.254145,-36.910000,-2455694.125111,-4767177.493445,3441499.893076,13.884095,37.162910,43.931511,73.987556,41.223999,-179.866821,0.747818,0.562882,-0.281827,0.210962,133,32.866363,-117.254135,-37.040648,-2455693.421387,-4767178.269676,3441499.345526,4.708220
3435875892376,3441701257000,1422735111800131072,3441701257000,800139000,25,2,4,20,11,33,800,16,23.330000,101.716003,0.155304,0.550598,-0.064635,6.439281,0.013052,7.345889,25,2,4,20,11,33,599,9,3,32.866369,-117.254145,-36.910000,-2455694.125111,-4767177.493445,3441499.893076,13.884095,37.162910,43.931511,73.986084,41.224133,-179.868652,0.747822,0.562877,-0.281822,0.210971,133,32.866363,-117.254135,-37.040092,-2455693.418988,-4767178.271891,3441499.345203,4.711219
3435901195506,3441726257000,1422735111825131264,3441726257000,825139000,25,2,4,20,11,33,825,16,23.320002,101.729004,0.154380,0.551069,-0.064168,6.429465,0.027730,7.349323,25,2,4,20,11,33,599,9,3,32.866369,-117.254145,-36.910000,-2455694.125111,-4767177.493445,3441499.893076,13.884095,37.162910,43.931511,73.987030,41.226734,-179.869263,0.747810,0.562880,-0.281834,0.210990,32901,32.866363,-117.254134,-37.039311,-2455693.416698,-4767178.274277,3441499.344981,4.715727
3435926502284,3441751256000,1422735111850130176,3441751256000,850138000,25,2,4,20,11,33,850,16,23.314999,101.712006,0.155529,0.550610,-0.063447,6.462026,0.020772,7.377153,25,2,4,20,11,33,799,9,3,32.866369,-117.254145,-36.843000,-2455694.145111,-4767177.543445,3441499.933076,13.903446,37.252289,44.047935,73.988869,41.227398,-179.868408,0.747801,0.562888,-0.281839,0.210992,32901,32.866363,-117.254134,-37.038920,-2455693.414266,-4767178.276362,3441499.344559,4.718738
3435950764358,3441776257000,1422735111875131136,3441776257000,875139000,25,2,4,20,11,33,875,0,23.309999,101.725006,0.156225,0.550616,-0.063922,6.459880,0.002594,7.337441,25,2,4,20,11,33,799,9,3,32.866369,-117.254145,-36.843000,-2455694.145111,-4767177.543445,3441499.933076,13.903446,37.252289,44.047935,73.987610,41.226902,-179.870285,0.747805,0.562886,-0.281829,0.210999,133,32.866362,-117.254134,-37.020870,-2455693.423057,-4767178.296921,3441499.343300,4.709217
3435976076747,3441801256000,1422735111900130048,3441801256000,900138000,25,2,4,20,11,33,900,16,23.330000,101.729004,0.156928,0.551345,-0.064173,6.459409,0.009875,7.383760,25,2,4,20,11,33,799,9,3,32.866369,-117.254145,-36.843000,-2455694.145111,-4767177.543445,3441499.933076,13.903446,37.252289,44.047935,73.986084,41.230228,-179.872345,0.747800,0.562874,-0.281843,0.211025,133,32.866362,-117.254134,-37.020177,-2455693.420668,-4767178.299332,3441499.342952,4.713698
3436001381784,3441826259000,1422735111925133056,3441826259000,925141000,25,2,4,20,11,33,925,16,23.320002,101.716003,0.155300,0.551090,-0.063218,6.444735,0.012085,7.366205,25,2,4,20,11,33,799,9,3,32.866369,-117.254145,-36.843000,-2455694.145111,-4767177.543445,3441499.933076,13.903446,37.252289,44.047935,73.985344,41.231781,-179.873230,0.747798,0.562869,-0.281850,0.211037,32901,32.866362,-117.254134,-37.019506,-2455693.418350,-4767178.301651,3441499.342641,4.717443
3436025696062,3441851257000,1422735111950131200,3441851257000,950139000,25,2,4,20,11,33,950,16,23.330000,101.716003,0.155766,0.551092,-0.063693,6.461099,0.016793,7.395198,25,2,4,20,11,33,799,9,3,32.866369,-117.254145,-36.843000,-2455694.145111,-4767177.543445,3441499.933076,13.903446,37.252289,44.047935,73.986588,41.233131,-179.871582,0.747792,0.562871,-0.281865,0.211036,32901,32.866362,-117.254134,-37.018919,-2455693.415897,-4767178.304003,3441499.342224,4.721193
3436051015710,3441876257000,1422735111975131136,3441876257000,975139000,25,2,4,20,11,33,975,0,23.314999,101.716003,0.156004,0.551572,-0.064177,6.461698,-0.002648,7.386411,25,2,4,20,11,33,799,9,3,32.866369,-117.254145,-36.843000,-2455694.145111,-4767177.543445,3441499.933076,13.903446,37.252289,44.047935,73.988159,41.232639,-179.869980,0.747788,0.562878,-0.281867,0.211027,133,32.866362,-117.254134,-37.018289,-2455693.413494,-4767178.306318,3441499.341904,4.724953
3436076331284,3441901257000,1422735112000131072,3441901257000,141000,25,2,4,20,11,34,0,16,23.319998,101.712006,0.156003,0.551818,-0.063468,6.457661,0.030408,7.379467,25,2,4,20,11,33,799,9,3,32.866369,-117.254145,-36.843000,-2455694.145111,-4767177.543445,3441499.933076,13.903446,37.252289,44.047935,73.987244,41.231773,-179.870300,0.747794,0.562874,-0.281861,0.211022,133,32.866362,-117.254134,-37.017682,-2455693.411142,-4767178.308638,3441499.341498,4.728720
3436100586950,3441926257000,1422735112025131008,3441926257000,25141000,25,2,4,20,11,34,25,16,23.330000,101.729004,0.155767,0.551334,-0.063460,6.452059,0.013318,7.347874,25,2,4,20,11,33,799,9,3,32.866369,-117.254145,-36.843000,-2455694.145111,-4767177.543445,3441499.933076,13.903446,37.252289,44.047935,73.988106,41.231049,-179.871094,0.747791,0.562883,-0.281851,0.211026,32901,32.866362,-117.254134,-37.017060,-2455693.408740,-4767178.310970,3441499.341138,4.732496
3436125892413,3441951256000,1422735112050131968,3441951256000,50140000,25,2,4,20,11,34,50,16,23.330000,101.729004,0.156010,0.552051,-0.064423,6.467185,0.030139,7.385093,25,2,4,20,11,34,0,9,3,32.866368,-117.254145,-36.768000,-2455694.205111,-4767177.593445,3441499.963076,13.926481,37.345970,44.165936,73.988861,41.230618,-179.870926,0.747788,0.562888,-0.281848,0.211025,32901,32.866362,-117.254134,-37.016541,-2455693.406261,-4767178.313252,3441499.340710,4.735522
3436151192987,3441976257000,1422735112075133184,3441976257000,75141000,25,2,4,20,11,34,75,0,23.330002,101.729004,0.155294,0.550855,-0.062501,6.445897,0.002067,7.371984,25,2,4,20,11,34,0,9,3,32.866368,-117.254145,-36.768000,-2455694.205111,-4767177.593445,3441499.963076,13.926481,37.345970,44.165936,73.989632,41.229980,-179.870651,0.747787,0.562894,-0.281843,0.211022,133,32.866362,-117.254136,-36.969881,-2455693.595578,-4767178.282647,3441499.334618,4.702187
3436176496839,3442001257000,1422735112100132864,3442001257000,100141000,25,2,4,20,11,34,100,16,23.320002,101.716003,0.155983,0.550628,-0.062022,6.441737,0.026506,7.381846,25,2,4,20,11,34,0,9,3,32.866368,-117.254145,-36.768000,-2455694.205111,-4767177.593445,3441499.963076,13.926481,37.345970,44.165936,73.989799,41.229881,-179.871384,0.747785,0.562897,-0.281839,0.211026,133,32.866362,-117.254136,-36.969191,-2455693.593787,-4767178.284823,3441499.334165,4.705811
3436200743506,3442026256000,1422735112125132032,3442026256000,125140000,25,2,4,20,11,34,125,16,23.319998,101.725006,0.155753,0.550623,-0.062259,6.453257,0.004148,7.396135,25,2,4,20,11,34,0,9,3,32.866368,-117.254145,-36.768000,-2455694.205111,-4767177.593445,3441499.963076,13.926481,37.345970,44.165936,73.990211,41.228031,-179.871063,0.747788,0.562902,-0.281828,0.211016,133,32.866362,-117.254136,-36.968469,-2455693.591979,-4767178.287010,3441499.333768,4.709443
3436226044487,3442051257000,1422735112150132992,3442051257000,150141000,25,2,4,20,11,34,150,16,23.325001,101.716003,0.155295,0.550122,-0.063913,6.419097,0.023862,7.381239,25,2,4,20,11,34,0,9,3,32.866368,-117.254145,-36.768000,-2455694.205111,-4767177.593445,3441499.963076,13.926481,37.345970,44.165936,73.989548,41.228546,-179.872177,0.747788,0.562900,-0.281827,0.211024,32901,32.866362,-117.254136,-36.967805,-2455693.590251,-4767178.289156,3441499.333262,4.713082
3436251347895,3442076257000,1422735112175132928,3442076257000,175141000,25,2,4,20,11,34,175,0,23.330000,101.729004,0.155292,0.550370,-0.062967,6.462205,0.029904,7.343678,25,2,4,20,11,34,0,9,3,32.866368,-117.254145,-36.768000,-2455694.205111,-4767177.593445,3441499.963076,13.926481,37.345970,44.165936,73.987450,41.227940,-179.874344,0.747795,0.562893,-0.281816,0.211030,32901,32.866362,-117.254136,-36.967143,-2455693.588421,-4767178.291344,3441499.332771,4.716729
3436275597858,3442101257000,1422735112200133120,3442101257000,200141000,25,2,4,20,11,34,200,16,23.309999,101.712006,0.156241,0.552054,-0.064423,6.481126,0.047481,7.345829,25,2,4,20,11,34,0,9,3,32.866368,-117.254145,-36.768000,-2455694.205111,-4767177.593445,3441499.963076,13.926481,37.345970,44.165936,73.986496,41.228527,-179.875732,0.747796,0.562889,-0.281815,0.211040,133,32.866362,-117.254136,-36.966396,-2455693.586688,-4767178.293549,3441499.332341,4.720383
3436300893987,3442126257000,1422735112225133056,3442126257000,225141000,25,2,4,20,11,34,225,16,23.330000,101.716003,0.154853,0.551791,-0.064893,6.469915,0.025238,7.338402,25,2,4,20,11,34,0,9,3,32.866368,-117.254145,-36.768000,-2455694.205111,-4767177.593445,3441499.963076,13.926481,37.345970,44.165936,73.985779,41.229591,-179.877213,0.747794,0.562886,-0.281816,0.211053,133,32.866362,-117.254136,-36.965792,-2455693.584799,-4767178.295714,3441499.331815,4.724044
3436326199858,3442151257000,1422735112250132992,3442151257000,250141000,25,2,4,20,11,34,250,16,23.330000,101.716003,0.155538,0.552056,-0.062997,6.451508,0.014019,7.378603,25,2,4,20,11,34,199,9,3,32.866369,-117.254144,-36.830000,-2455694.095111,-4767177.583445,3441499.943076,13.949745,37.446148,44.283905,73.986801,41.231445,-179.877960,0.747783,0.562891,-0.281822,0.211070,32901,32.866362,-117.254137,-36.904127,-2455693.693849,-4767178.265306,3441499.409990,4.726979
3436350453043,3442176257000,1422735112275132928,3442176257000,275141000,25,2,4,20,11,34,275,0,23.330002,101.729004,0.157389,0.551350,-0.064173,6.465300,0.004258,7.388443,25,2,4,20,11,34,199,9,3,32.866369,-117.254144,-36.830000,-2455694.095111,-4767177.583445,3441499.943076,13.949745,37.446148,44.283905,73.985977,41.231171,-179.879150,0.747786,0.562889,-0.281816,0.211074,32901,32.866362,-117.254137,-36.903250,-2455693.692601,-4767178.267243,3441499.409826,4.710281
3436375749487,3442201257000,1422735112300132864,3442201257000,300141000,25,2,4,20,11,34,300,16,23.319998,101.725006,0.155289,0.550616,-0.062259,6.427361,0.013194,7.335925,25,2,4,20,11,34,199,9,3,32.866369,-117.254144,-36.830000,-2455694.095111,-4767177.583445,3441499.943076,13.949745,37.446148,44.283905,73.984665,41.230888,-179.880646,0.747790,0.562884,-0.281810,0.211079,133,32.866362,-117.254137,-36.902554,-2455693.691025,-4767178.269197,3441499.409537,4.713880
3436401046395,3442226256000,1422735112325131776,3442226256000,325140000,25,2,4,20,11,34,325,16,23.319998,101.712006,0.155538,0.551325,-0.064172,6.482624,0.007059,7.352212,25,2,4,20,11,34,199,9,3,32.866369,-117.254144,-36.830000,-2455694.095111,-4767177.583445,3441499.943076,13.949745,37.446148,44.283905,73.984917,41.229691,-179.880310,0.747793,0.562887,-0.281803,0.211072,133,32.866362,-117.254137,-36.901751,-2455693.689556,-4767178.271204,3441499.409297,4.717485
3436426342413,3442251257000,1422735112350132992,3442251257000,350141000,25,2,4,20,11,34,350,16,23.330000,101.729004,0.155535,0.551817,-0.062756,6.450607,0.027229,7.361708,25,2,4,20,11,34,199,9,3,32.866369,-117.254144,-36.830000,-2455694.095111,-4767177.583445,3441499.943076,13.949745,37.446148,44.283905,73.984100,41.230137,-179.882065,0.747792,0.562886,-0.281799,0.211083,32901,32.866362,-117.254137,-36.901046,-2455693.688027,-4767178.273202,3441499.408930,4.721098
3436450584098,3442276257000,1422735112375132928,3442276257000,375141000,25,2,4,20,11,34,375,0,23.309999,101.725006,0.155523,0.550615,-0.062734,6.440721,0.003877,7.389612,25,2,4,20,11,34,199,9,3,32.866369,-117.254144,-36.830000,-2455694.095111,-4767177.583445,3441499.943076,13.949745,37.446148,44.283905,73.984207,41.229740,-179.884018,0.747789,0.562892,-0.281786,0.211094,32901,32.866362,-117.254137,-36.900292,-2455693.686466,-4767178.275209,3441499.408664,4.724719
3436475890246,3442301257000,1422735112400132864,3442301257000,400141000,25,2,4,20,11,34,400,16,23.330000,101.716003,0.155075,0.551319,-0.064172,6.467067,0.016668,7.370650,25,2,4,20,11,34,199,9,3,32.866369,-117.254144,-36.830000,-2455694.095111,-4767177.583445,3441499.943076,13.949745,37.446148,44.283905,73.982956,41.226959,-179.886246,0.747798,0.562894,-0.281760,0.211092,133,32.866362,-117.254137,-36.899652,-2455693.684911,-4767178.277168,3441499.408251,4.727621
3436501186209,3442326257000,1422735112425133056,3442326257000,425141000,25,2,4,20,11,34,425,16,23.319998,101.712006,0.156000,0.551089,-0.064406,6.447645,0.028834,7.364041,25,2,4,20,11,34,199,9,3,32.866369,-117.254144,-36.830000,-2455694.095111,-4767177.583445,3441499.943076,13.949745,37.446148,44.283905,73.982727,41.226215,-179.886963,0.747800,0.562896,-0.281752,0.211093,133,32.866362,-117.254137,-36.898771,-2455693.683441,-4767178.279276,3441499.408015,4.731984
3436525432654,3442351256000,1422735112450131968,3442351256000,450140000,25,2,4,20,11,34,450,16,23.309999,101.712006,0.156694,0.550857,-0.064639,6.460083,0.011085,7.381030,25,2,4,20,11,34,399,9,3,32.866369,-117.254143,-36.948000,-2455693.915111,-4767177.533445,3441499.923076,13.973650,37.546486,44.401470,73.982353,41.225235,-179.887589,0.747803,0.562897,-0.281743,0.211091,32901,32.866362,-117.254137,-36.898103,-2455693.681881,-4767178.281244,3441499.407646,4.734897
3436550737006,3442376257000,1422735112475132928,3442376257000,475141000,25,2,4,20,11,34,475,0,23.315001,101.729004,0.155762,0.551096,-0.063218,6.450921,0.040557,7.345618,25,2,4,20,11,34,399,9,3,32.866369,-117.254143,-36.948000,-2455693.915111,-4767177.533445,3441499.923076,13.973650,37.546486,44.401470,73.982414,41.226208,-179.887390,0.747800,0.562895,-0.281750,0.211095,32901,32.866363,-117.254138,-36.843339,-2455693.802376,-4767178.226665,3441499.498251,4.715873
3436576012783,3442401256000,1422735112500132096,3442401256000,500140000,25,2,4,20,11,34,500,16,23.319998,101.725006,0.155067,0.551332,-0.062509,6.449506,0.009897,7.357394,25,2,4,20,11,34,399,9,3,32.866369,-117.254143,-36.948000,-2455693.915111,-4767177.533445,3441499.923076,13.973650,37.546486,44.401470,73.982071,41.225021,-179.888275,0.747803,0.562897,-0.281738,0.211094,133,32.866363,-117.254138,-36.842487,-2455693.801224,-4767178.228461,3441499.498165,4.719433
3436600278839,3442426256000,1422735112525132032,3442426256000,525140000,25,2,4,20,11,34,525,16,23.309999,101.725006,0.155778,0.551804,-0.064893,6.460713,0.015957,7.356504,25,2,4,20,11,34,399,9,3,32.866369,-117.254143,-36.948000,-2455693.915111,-4767177.533445,3441499.923076,13.973650,37.546486,44.401470,73.981453,41.225609,-179.891174,0.747800,0.562899,-0.281729,0.211114,133,32.866363,-117.254138,-36.841684,-2455693.800049,-4767178.230140,3441499.498169,4.723001
3436625594413,3442451257000,1422735112550132992,3442451257000,550141000,25,2,4,20,11,34,550,16,23.325001,101.729004,0.155092,0.552027,-0.065847,6.473088,0.000288,7.381690,25,2,4,20,11,34,399,9,3,32.866369,-117.254143,-36.948000,-2455693.915111,-4767177.533445,3441499.923076,13.973650,37.546486,44.401470,73.980110,41.227100,-179.892395,0.747800,0.562891,-0.281735,0.211126,32901,32.866363,-117.254138,-36.840885,-2455693.798817,-4767178.231905,3441499.498085,4.726575
3436650913709,3442476257000,1422735112575133184,3442476257000,575141000,25,2,4,20,11,34,575,0,23.324999,101.712006,0.156459,0.550615,-0.064397,6.465412,-0.005426,7.381317,25,2,4,20,11,34,399,9,3,32.866369,-117.254143,-36.948000,-2455693.915111,-4767177.533445,3441499.923076,13.973650,37.546486,44.401470,73.977676,41.228809,-179.896851,0.747800,0.562883,-0.281729,0.211157,32901,32.866363,-117.254138,-36.840017,-2455693.797669,-4767178.233723,3441499.497998,4.730157
3436675205857,3442501257000,1422735112600132864,3442501257000,600141000,25,2,4,20,11,34,600,16,23.330000,101.729004,0.155764,0.550850,-0.063926,6.446589,0.004034,7.362120,25,2,4,20,11,34,399,9,3,32.866369,-117.254143,-36.948000,-2455693.915111,-4767177.533445,3441499.923076,13.973650,37.546486,44.401470,73.975494,41.230625,-179.898727,0.747803,0.562870,-0.281736,0.211173,133,32.866363,-117.254138,-36.839223,-2455693.796460,-4767178.235466,3441499.497920,4.733747
3436700536043,3442526257000,1422735112625133056,3442526257000,625141000,25,2,4,20,11,34,625,16,23.319998,101.725006,0.155765,0.550362,-0.064868,6.418604,0.033311,7.366273,25,2,4,20,11,34,399,9,3,32.866369,-117.254143,-36.948000,-2455693.915111,-4767177.533445,3441499.923076,13.973650,37.546486,44.401470,73.975510,41.231918,-179.898071,0.747801,0.562866,-0.281747,0.211175,133,32.866363,-117.254138,-36.838415,-2455693.795245,-4767178.237218,3441499.497858,4.737343
3436725869561,3442551256000,1422735112650131968,3442551256000,650140000,25,2,4,20,11,34,650,16,23.309999,101.725006,0.155531,0.550850,-0.063451,6.441334,0.043218,7.350049,25,2,4,20,11,34,599,9,3,32.866369,-117.254142,-36.860000,-2455693.895111,-4767177.603445,3441499.993076,13.996579,37.638004,44.524090,73.975433,41.231129,-179.897949,0.747803,0.562866,-0.281743,0.211171,133,32.866363,-117.254138,-36.837713,-2455693.794056,-4767178.238855,3441499.497742,4.740226
3436751182117,3442576257000,1422735112675132928,3442576257000,675141000,25,2,4,20,11,34,675,0,23.324999,101.712006,0.155530,0.550852,-0.063213,6.453226,0.028170,7.352926,25,2,4,20,11,34,599,9,3,32.866369,-117.254142,-36.860000,-2455693.895111,-4767177.603445,3441499.993076,13.996579,37.638004,44.524090,73.976517,41.231430,-179.897659,0.747798,0.562872,-0.281744,0.211173,32901,32.866363,-117.254139,-36.775905,-2455693.840931,-4767178.270109,3441499.535408,4.729162
3436775455394,3442601257000,1422735112700133120,3442601257000,700141000,25,2,4,20,11,34,700,16,23.320002,101.729004,0.155304,0.551328,-0.063459,6.472355,-0.029561,7.328827,25,2,4,20,11,34,599,9,3,32.866369,-117.254142,-36.860000,-2455693.895111,-4767177.603445,3441499.993076,13.996579,37.638004,44.524090,73.976562,41.231270,-179.897110,0.747799,0.562871,-0.281746,0.211168,32901,32.866363,-117.254139,-36.775086,-2455693.839790,-4767178.271794,3441499.535408,4.732725
3436800787098,3442626257000,1422735112725133056,3442626257000,725141000,25,2,4,20,11,34,725,16,23.309999,101.712006,0.155087,0.552277,-0.064664,6.466663,0.013368,7.334914,25,2,4,20,11,34,599,9,3,32.866369,-117.254142,-36.860000,-2455693.895111,-4767177.603445,3441499.993076,13.996579,37.638004,44.524090,73.977432,41.231651,-179.896515,0.747795,0.562875,-0.281750,0.211169,133,32.866363,-117.254139,-36.774205,-2455693.838670,-4767178.273587,3441499.535359,4.736295
3436826117580,3442651257000,1422735112750132992,3442651257000,750141000,25,2,4,20,11,34,750,16,23.309999,101.712006,0.155768,0.551088,-0.064168,6.456090,0.011523,7.355430,25,2,4,20,11,34,599,9,3,32.866369,-117.254142,-36.860000,-2455693.895111,-4767177.603445,3441499.993076,13.996579,37.638004,44.524090,73.979210,41.232269,-179.895950,0.747785,0.562884,-0.281753,0.211172,133,32.866363,-117.254138,-36.773340,-2455693.837580,-4767178.275359,3441499.535286,4.739872
3436850407987,3442676257000,1422735112775132928,3442676257000,775141000,25,2,4,20,11,34,775,0,23.309998,101.712006,0.156463,0.551096,-0.064406,6.446601,0.005995,7.367082,25,2,4,20,11,34,599,9,3,32.866369,-117.254142,-36.860000,-2455693.895111,-4767177.603445,3441499.993076,13.996579,37.638004,44.524090,73.981094,41.232170,-179.894089,0.747780,0.562892,-0.281758,0.211164,32901,32.866363,-117.254138,-36.772453,-2455693.836437,-4767178.277145,3441499.535275,4.743457
3436875731339,3442701260000,1422735112800136192,3442701260000,800144000,25,2,4,20,11,34,800,16,23.319998,101.712006,0.155992,0.550858,-0.063214,6.446468,-0.002013,7.363921,25,2,4,20,11,34,599,9,3,32.866369,-117.254142,-36.860000,-2455693.895111,-4767177.603445,3441499.993076,13.996579,37.638004,44.524090,73.981842,41.231339,-179.893982,0.747778,0.562898,-0.281752,0.211161,32901,32.866363,-117.254138,-36.771582,-2455693.835354,-4767178.278907,3441499.535222,4.747049
3436901061913,3442726257000,1422735112825133056,3442726257000,825141000,25,2,4,20,11,34,825,16,23.319998,101.725006,0.155058,0.550127,-0.062963,6.485362,0.023936,7.407704,25,2,4,20,11,34,599,9,3,32.866369,-117.254142,-36.860000,-2455693.895111,-4767177.603445,3441499.993076,13.996579,37.638004,44.524090,73.981949,41.229843,-179.893906,0.747782,0.562901,-0.281743,0.211154,133,32.866363,-117.254138,-36.770718,-2455693.834234,-4767178.280698,3441499.535145,4.750649
3436925302302,3442751257000,1422735112850132992,3442751257000,850141000,25,2,4,20,11,34,850,16,23.325001,101.729004,0.156235,0.552061,-0.063473,6.469707,0.032163,7.372145,25,2,4,20,11,34,799,9,3,32.866370,-117.254141,-36.924000,-2455693.745111,-4767177.603445,3441499.983076,14.018023,37.720257,44.639057,73.981064,41.229191,-179.895020,0.747786,0.562899,-0.281734,0.211156,133,32.866364,-117.254140,-36.690532,-2455693.986803,-4767178.230988,3441499.643162,4.753534
3436950631820,3442776256000,1422735112875132160,3442776256000,875140000,25,2,4,20,11,34,875,0,23.309999,101.725006,0.155997,0.551337,-0.063460,6.481211,0.024446,7.344263,25,2,4,20,11,34,799,9,3,32.866370,-117.254141,-36.924000,-2455693.745111,-4767177.603445,3441499.983076,14.018023,37.720257,44.639057,73.983017,41.232498,-179.894135,0.747770,0.562904,-0.281757,0.211171,32901,32.866364,-117.254140,-36.689462,-2455693.986281,-4767178.232437,3441499.643512,4.734807
3436975956450,3442801257000,1422735112900132864,3442801257000,900141000,25,2,4,20,11,34,900,16,23.320002,101.716003,0.155535,0.551573,-0.063226,6.452510,0.015052,7.349356,25,2,4,20,11,34,799,9,3,32.866370,-117.254141,-36.924000,-2455693.745111,-4767177.603445,3441499.983076,14.018023,37.720257,44.639057,73.983032,41.233177,-179.894318,0.747767,0.562903,-0.281760,0.211176,32901,32.866364,-117.254140,-36.688472,-2455693.985658,-4767178.233971,3441499.643666,4.738333
3437000229135,3442826256000,1422735112925132032,3442826256000,925140000,25,2,4,20,11,34,925,16,23.309999,101.725006,0.156455,0.550132,-0.064626,6.468382,-0.004500,7.392808,25,2,4,20,11,34,799,9,3,32.866370,-117.254141,-36.924000,-2455693.745111,-4767177.603445,3441499.983076,14.018023,37.720257,44.639057,73.980942,41.233963,-179.895966,0.747773,0.562892,-0.281761,0.211185,133,32.866364,-117.254140,-36.687460,-2455693.984982,-4767178.235467,3441499.643952,4.741866
3437025556561,3442851257000,1422735112950132992,3442851257000,950141000,25,2,4,20,11,34,950,16,23.330000,101.716003,0.155522,0.550375,-0.062730,6.443232,0.003785,7.353669,25,2,4,20,11,34,799,9,3,32.866370,-117.254141,-36.924000,-2455693.745111,-4767177.603445,3441499.983076,14.018023,37.720257,44.639057,73.979286,41.233379,-179.897507,0.747779,0.562886,-0.281753,0.211188,133,32.866364,-117.254140,-36.686578,-2455693.984284,-4767178.236853,3441499.644165,4.745406
3437050907876,3442876257000,1422735112975132928,3442876257000,975141000,25,2,4,20,11,34,975,0,23.314999,101.729004,0.156921,0.551109,-0.063456,6.454541,0.003970,7.394163,25,2,4,20,11,34,799,9,3,32.866370,-117.254141,-36.924000,-2455693.745111,-4767177.603445,3441499.983076,14.018023,37.720257,44.639057,73.978653,41.231953,-179.898575,0.747784,0.562887,-0.281739,0.211187,32901,32.866364,-117.254140,-36.685638,-2455693.983551,-4767178.238337,3441499.644375,4.748953
3437075198376,3442901257000,1422735113000133120,3442901257000,143000,25,2,4,20,11,35,0,16,23.319998,101.725006,0.155310,0.551805,-0.063943,6.464569,0.022929,7.363337,25,2,4,20,11,34,799,9,3,32.866370,-117.254141,-36.924000,-2455693.745111,-4767177.603445,3441499.983076,14.018023,37.720257,44.639057,73.978561,41.231617,-179.899078,0.747784,0.562889,-0.281735,0.211188,32901,32.866364,-117.254140,-36.684580,-2455693.982915,-4767178.239876,3441499.644657,4.752507
3437100506635,3442926257000,1422735113025132800,3442926257000,25143000,25,2,4,20,11,35,25,16,23.320002,101.729004,0.154850,0.551551,-0.064889,6.453711,-0.010691,7.348932,25,2,4,20,11,34,799,9,3,32.866370,-117.254141,-36.924000,-2455693.745111,-4767177.603445,3441499.983076,14.018023,37.720257,44.639057,73.979706,41.231770,-179.897812,0.747781,0.562893,-0.281740,0.211183,133,32.866364,-117.254140,-36.683653,-2455693.982154,-4767178.241361,3441499.644863,4.756069
3437125813116,3442951257000,1422735113050134784,3442951257000,50143000,25,2,4,20,11,35,50,16,23.314999,101.712006,0.154611,0.550828,-0.064638,6.477698,0.002813,7.349961,25,2,4,20,11,35,0,9,3,32.866370,-117.254141,-36.840000,-2455693.795111,-4767177.643445,3441500.043076,14.038579,37.803486,44.754349,73.978645,41.233711,-179.898727,0.747780,0.562884,-0.281750,0.211196,133,32.866364,-117.254141,-36.592689,-2455694.134698,-4767178.247987,3441499.695244,4.758923
3437150072098,3442976257000,1422735113075134976,3442976257000,75143000,25,2,4,20,11,35,75,0,23.314999,101.729004,0.155980,0.550875,-0.061076,6.438140,0.032882,7.384354,25,2,4,20,11,35,0,9,3,32.866370,-117.254141,-36.840000,-2455693.795111,-4767177.643445,3441500.043076,14.038579,37.803486,44.754349,73.979935,41.235092,-179.898956,0.747769,0.562891,-0.281756,0.211208,32901,32.866364,-117.254141,-36.591391,-2455694.134702,-4767178.249377,3441499.695722,4.740624
3437175386042,3443001257000,1422735113100134912,3443001257000,100143000,25,2,4,20,11,35,100,16,23.319998,101.712006,0.155994,0.550610,-0.064160,6.437816,0.028165,7.337830,25,2,4,20,11,35,0,9,3,32.866370,-117.254141,-36.840000,-2455693.795111,-4767177.643445,3441500.043076,14.038579,37.803486,44.754349,73.981239,41.234440,-179.898376,0.747766,0.562899,-0.281752,0.211204,32901,32.866364,-117.254141,-36.590382,-2455694.134399,-4767178.250750,3441499.695906,4.744114
3437200695561,3443026257000,1422735113125134848,3443026257000,125143000,25,2,4,20,11,35,125,16,23.330000,101.729004,0.156223,0.551106,-0.062743,6.437776,0.016138,7.311572,25,2,4,20,11,35,0,9,3,32.866370,-117.254141,-36.840000,-2455693.795111,-4767177.643445,3441500.043076,14.038579,37.803486,44.754349,73.981537,41.235054,-179.898697,0.747762,0.562901,-0.281754,0.211210,133,32.866364,-117.254141,-36.589306,-2455694.134155,-4767178.252113,3441499.696186,4.747611
3437224952413,3443051257000,1422735113150134784,3443051257000,150143000,25,2,4,20,11,35,150,16,23.309999,101.712006,0.155761,0.551342,-0.062510,6.469611,0.012156,7.345920,25,2,4,20,11,35,0,9,3,32.866370,-117.254141,-36.840000,-2455693.795111,-4767177.643445,3441500.043076,14.038579,37.803486,44.754349,73.981796,41.233585,-179.898529,0.747765,0.562905,-0.281745,0.211202,133,32.866364,-117.254141,-36.588215,-2455694.133925,-4767178.253463,3441499.696503,4.751115
3437250285931,3443076257000,1422735113175134976,3443076257000,175143000,25,2,4,20,11,35,175,0,23.309999,101.725006,0.155525,0.550858,-0.062501,6.459159,0.009471,7.368193,25,2,4,20,11,35,0,9,3,32.866370,-117.254141,-36.840000,-2455693.795111,-4767177.643445,3441500.043076,14.038579,37.803486,44.754349,73.982391,41.234291,-179.898254,0.747761,0.562907,-0.281749,0.211205,133,32.866364,-117.254141,-36.587137,-2455694.133671,-4767178.254838,3441499.696778,4.754626
3437275622394,3443101257000,1422735113200134912,3443101257000,200143000,25,2,4,20,11,35,200,16,23.330000,101.729004,0.156693,0.551101,-0.064168,6.444161,0.019407,7.353049,25,2,4,20,11,35,0,9,3,32.866370,-117.254141,-36.840000,-2455693.795111,-4767177.643445,3441500.043076,14.038579,37.803486,44.754349,73.982201,41.234905,-179.898178,0.747760,0.562904,-0.281754,0.211207,32901,32.866364,-117.254141,-36.586088,-2455694.133338,-4767178.256262,3441499.696986,4.758145
3437299894802,3443126257000,1422735113225134848,3443126257000,225143000,25,2,4,20,11,35,225,16,23.320002,101.716003,0.154370,0.550596,-0.063209,6.456748,0.005193,7.376629,25,2,4,20,11,35,0,9,3,32.866370,-117.254141,-36.840000,-2455693.795111,-4767177.643445,3441500.043076,14.038579,37.803486,44.754349,73.981598,41.234524,-179.898148,0.747764,0.562901,-0.281753,0.211204,32901,32.866364,-117.254141,-36.584952,-2455694.133171,-4767178.257633,3441499.697311,4.761670
3437325254616,3443151256000,1422735113250134016,3443151256000,250142000,25,2,4,20,11,35,250,16,23.309999,101.712006,0.156706,0.552056,-0.064898,6.433281,0.022311,7.387656,25,2,4,20,11,35,199,9,3,32.866370,-117.254141,-36.815000,-2455693.805111,-4767177.673445,3441500.053076,14.058517,37.882393,44.868431,73.982391,41.233555,-179.898254,0.747762,0.562908,-0.281745,0.211202,133,32.866364,-117.254141,-36.584037,-2455694.132802,-4767178.258917,3441499.697492,4.764495
3437350591098,3443176257000,1422735113275134720,3443176257000,275143000,25,2,4,20,11,35,275,0,23.309999,101.712006,0.155985,0.550137,-0.063201,6.470418,0.012621,7.350812,25,2,4,20,11,35,199,9,3,32.866370,-117.254141,-36.815000,-2455693.805111,-4767177.673445,3441500.053076,14.058517,37.882393,44.868431,73.982834,41.231060,-179.897629,0.747768,0.562914,-0.281731,0.211186,133,32.866364,-117.254143,-36.513226,-2455694.257103,-4767178.262967,3441499.734302,4.745536
3437375911820,3443201257000,1422735113300134912,3443201257000,300143000,25,2,4,20,11,35,300,16,23.330000,101.729004,0.156448,0.550144,-0.063201,6.457297,0.010935,7.375525,25,2,4,20,11,35,199,9,3,32.866370,-117.254141,-36.815000,-2455693.805111,-4767177.673445,3441500.053076,14.058517,37.882393,44.868431,73.983101,41.231575,-179.898636,0.747763,0.562917,-0.281729,0.211196,32901,32.866364,-117.254143,-36.512054,-2455694.257271,-4767178.264286,3441499.734528,4.748987
3437400162857,3443226257000,1422735113325135104,3443226257000,325143000,25,2,4,20,11,35,325,16,23.319998,101.712006,0.155313,0.552287,-0.063714,6.456415,0.009917,7.407980,25,2,4,20,11,35,199,9,3,32.866370,-117.254141,-36.815000,-2455693.805111,-4767177.673445,3441500.053076,14.058517,37.882393,44.868431,73.982300,41.232117,-179.898315,0.747766,0.562910,-0.281735,0.211195,32901,32.866364,-117.254143,-36.510927,-2455694.257367,-4767178.265536,3441499.734816,4.752444
3437426519838,3443251257000,1422735113350134784,3443251257000,350143000,25,2,4,20,11,35,350,16,23.330000,101.716003,0.155773,0.551811,-0.063943,6.460382,0.007001,7.348333,25,2,4,20,11,35,199,9,3,32.866370,-117.254141,-36.815000,-2455693.805111,-4767177.673445,3441500.053076,14.058517,37.882393,44.868431,73.981995,41.233006,-179.898819,0.747765,0.562908,-0.281739,0.211202,133,32.866364,-117.254143,-36.509785,-2455694.257493,-4767178.266762,3441499.735146,4.755908
3437450787468,3443276257000,1422735113375134976,3443276257000,375143000,25,2,4,20,11,35,375,0,23.309999,101.712006,0.156232,0.551335,-0.064173,6.458066,0.015589,7.381386,25,2,4,20,11,35,199,9,3,32.866370,-117.254141,-36.815000,-2455693.805111,-4767177.673445,3441500.053076,14.058517,37.882393,44.868431,73.982292,41.234325,-179.899139,0.747759,0.562908,-0.281745,0.211211,133,32.866364,-117.254143,-36.508626,-2455694.257589,-4767178.268086,3441499.735393,4.759379
3437476094764,3443301258000,1422735113400135936,3443301258000,400144000,25,2,4,20,11,35,400,16,23.320002,101.716003,0.155531,0.551335,-0.062985,6.458969,0.004055,7.343494,25,2,4,20,11,35,199,9,3,32.866370,-117.254141,-36.815000,-2455693.805111,-4767177.673445,3441500.053076,14.058517,37.882393,44.868431,73.983017,41.232700,-179.899261,0.747760,0.562916,-0.281733,0.211205,32901,32.866364,-117.254143,-36.507484,-2455694.257713,-4767178.269334,3441499.735691,4.762857
3437501415690,3443326257000,1422735113425134848,3443326257000,425143000,25,2,4,20,11,35,425,16,23.320002,101.729004,0.155303,0.551328,-0.063460,6.463165,0.004456,7.370088,25,2,4,20,11,35,199,9,3,32.866370,-117.254141,-36.815000,-2455693.805111,-4767177.673445,3441500.053076,14.058517,37.882393,44.868431,73.983597,41.232986,-179.899353,0.747756,0.562919,-0.281733,0.211209,32901,32.866364,-117.254143,-36.506334,-2455694.257820,-4767178.270628,3441499.735953,4.766343
3437526726227,3443351257000,1422735113450135040,3443351257000,450143000,25,2,4,20,11,35,450,16,23.314999,101.725006,0.155546,0.551802,-0.064656,6.446885,0.021152,7.341024,25,2,4,20,11,35,399,9,3,32.866370,-117.254141,-36.833000,-2455693.775111,-4767177.673445,3441500.043076,14.077621,37.958073,44.976471,73.983734,41.234241,-179.899567,0.747752,0.562919,-0.281740,0.211217,133,32.866364,-117.254142,-36.505294,-2455694.257846,-4767178.271833,3441499.736194,4.769135
3437550983857,3443376257000,1422735113475134976,3443376257000,475143000,25,2,4,20,11,35,475,0,23.315001,101.729004,0.156212,0.549416,-0.063663,6.486997,0.019263,7.387149,25,2,4,20,11,35,399,9,3,32.866370,-117.254141,-36.833000,-2455693.775111,-4767177.673445,3441500.043076,14.077621,37.958073,44.976471,73.984856,41.236050,-179.899429,0.747742,0.562922,-0.281751,0.211228,133,32.866364,-117.254144,-36.436318,-2455694.434745,-4767178.237553,3441499.785080,4.745996
3437576295042,3443401257000,1422735113500134912,3443401257000,500143000,25,2,4,20,11,35,500,16,23.309999,101.725006,0.155543,0.551562,-0.064652,6.439139,0.027361,7.375958,25,2,4,20,11,35,399,9,3,32.866370,-117.254141,-36.833000,-2455693.775111,-4767177.673445,3441500.043076,14.077621,37.958073,44.976471,73.984253,41.235905,-179.899323,0.747746,0.562918,-0.281751,0.211225,32901,32.866364,-117.254144,-36.435097,-2455694.435407,-4767178.238589,3441499.785435,4.749384
3437601598375,3443426257000,1422735113525134848,3443426257000,525143000,25,2,4,20,11,35,525,16,23.320002,101.716003,0.155519,0.549893,-0.062959,6.470016,-0.013877,7.355909,25,2,4,20,11,35,399,9,3,32.866370,-117.254141,-36.833000,-2455693.775111,-4767177.673445,3441500.043076,14.077621,37.958073,44.976471,73.984215,41.234299,-179.898331,0.747752,0.562919,-0.281746,0.211210,32901,32.866364,-117.254144,-36.433823,-2455694.436035,-4767178.239663,3441499.785860,4.752781
3437625844820,3443451258000,1422735113550135808,3443451258000,550144000,25,2,4,20,11,35,550,16,23.314999,101.725006,0.156449,0.551116,-0.061793,6.447230,0.006471,7.355303,25,2,4,20,11,35,399,9,3,32.866370,-117.254141,-36.833000,-2455693.775111,-4767177.673445,3441500.043076,14.077621,37.958073,44.976471,73.983978,41.234116,-179.899216,0.747752,0.562920,-0.281740,0.211214,2181,32.866364,-117.254144,-36.432602,-2455694.436792,-4767178.240667,3441499.786191,4.756183
3437651153283,3443476257000,1422735113575134976,3443476257000,575143000,25,2,4,20,11,35,575,0,23.309998,101.712006,0.156464,0.550850,-0.065114,6.475723,0.023622,7.365667,25,2,4,20,11,35,399,9,3,32.866370,-117.254141,-36.833000,-2455693.775111,-4767177.673445,3441500.043076,14.077621,37.958073,44.976471,73.984795,41.234325,-179.899612,0.747746,0.562925,-0.281739,0.211220,2181,32.866364,-117.254144,-36.431407,-2455694.437372,-4767178.241764,3441499.786474,4.759592
3437676472005,3443501257000,1422735113600134912,3443501257000,600143000,25,2,4,20,11,35,600,16,23.330000,101.716003,0.155308,0.551320,-0.064410,6.470908,0.013446,7.357255,25,2,4,20,11,35,399,9,3,32.866370,-117.254141,-36.833000,-2455693.775111,-4767177.673445,3441500.043076,14.077621,37.958073,44.976471,73.985863,41.235283,-179.898056,0.747742,0.562927,-0.281750,0.211217,32901,32.866364,-117.254144,-36.430195,-2455694.438028,-4767178.242790,3441499.786831,4.763008
3437700745857,3443526257000,1422735113625134848,3443526257000,625143000,25,2,4,20,11,35,625,16,23.309999,101.725006,0.155530,0.550850,-0.063451,6.454802,0.002370,7.373565,25,2,4,20,11,35,399,9,3,32.866370,-117.254141,-36.833000,-2455693.775111,-4767177.673445,3441500.043076,14.077621,37.958073,44.976471,73.987900,41.235767,-179.896683,0.747733,0.562936,-0.281757,0.211216,32901,32.866364,-117.254144,-36.428965,-2455694.438730,-4767178.243813,3441499.787193,4.766430
3437726053561,3443551256000,1422735113650133760,3443551256000,650142000,25,2,4,20,11,35,650,16,23.309999,101.725006,0.156216,0.549896,-0.063672,6.445164,0.025013,7.368110,25,2,4,20,11,35,599,9,3,32.866370,-117.254141,-36.829000,-2455693.765111,-4767177.673445,3441500.053076,14.096944,38.031586,45.084465,73.987801,41.236313,-179.896454,0.747732,0.562934,-0.281761,0.211217,32901,32.866364,-117.254146,-36.361485,-2455694.575630,-4767178.244829,3441499.813108,4.769173
3437751409264,3443576257000,1422735113675134976,3443576257000,675143000,25,2,4,20,11,35,675,0,23.324999,101.725006,0.155761,0.550123,-0.064626,6.448869,0.003832,7.353776,25,2,4,20,11,35,599,9,3,32.866370,-117.254141,-36.829000,-2455693.765111,-4767177.673445,3441500.053076,14.096944,38.031586,45.084465,73.987358,41.235043,-179.897446,0.747736,0.562936,-0.281749,0.211216,10373,32.866364,-117.254146,-36.359941,-2455694.576922,-4767178.245872,3441499.813602,4.747397
3437775674560,3443601257000,1422735113700134912,3443601257000,700143000,25,2,4,20,11,35,700,16,23.320002,101.729004,0.155990,0.550860,-0.062976,6.461083,0.019551,7.386894,25,2,4,20,11,35,599,9,3,32.866370,-117.254141,-36.829000,-2455693.765111,-4767177.673445,3441500.053076,14.096944,38.031586,45.084465,73.986198,41.236752,-179.899231,0.747734,0.562929,-0.281754,0.211233,10373,32.866364,-117.254146,-36.358617,-2455694.578047,-4767178.246837,3441499.813916,4.750731
3437800977579,3443626257000,1422735113725134848,3443626257000,725143000,25,2,4,20,11,35,725,16,23.330000,101.729004,0.155757,0.550615,-0.063210,6.467084,0.001545,7.325612,25,2,4,20,11,35,599,9,3,32.866370,-117.254141,-36.829000,-2455693.765111,-4767177.673445,3441500.053076,14.096944,38.031586,45.084465,73.986992,41.237469,-179.898727,0.747729,0.562932,-0.281759,0.211235,32901,32.866364,-117.254146,-36.357332,-2455694.579107,-4767178.247723,3441499.814314,4.754071
3437826277227,3443651257000,1422735113750135040,3443651257000,750143000,25,2,4,20,11,35,750,16,23.314999,101.712006,0.155990,0.550372,-0.063918,6.460671,0.028878,7.388315,25,2,4,20,11,35,599,9,3,32.866370,-117.254141,-36.829000,-2455693.765111,-4767177.673445,3441500.053076,14.096944,38.031586,45.084465,73.987648,41.237431,-179.898499,0.747727,0.562936,-0.281759,0.211235,32901,32.866364,-117.254146,-36.356094,-2455694.580199,-4767178.248628,3441499.814576,4.757417
3437850527764,3443676257000,1422735113775134720,3443676257000,775143000,25,2,4,20,11,35,775,0,23.330000,101.729004,0.157152,0.551599,-0.062752,6.452799,0.000061,7.380276,25,2,4,20,11,35,599,9,3,32.866370,-117.254141,-36.829000,-2455693.765111,-4767177.673445,3441500.053076,14.096944,38.031586,45.084465,73.988464,41.237965,-179.897903,0.747722,0.562938,-0.281764,0.211236,133,32.866364,-117.254146,-36.354782,-2455694.581301,-4767178.249588,3441499.814893,4.760770
3437875825690,3443701257000,1422735113800134912,3443701257000,800143000,25,2,4,20,11,35,800,16,23.330000,101.716003,0.156932,0.551579,-0.064890,6.457922,0.008908,7.331517,25,2,4,20,11,35,599,9,3,32.866370,-117.254141,-36.829000,-2455693.765111,-4767177.673445,3441500.053076,14.096944,38.031586,45.084465,73.986732,41.237080,-179.899689,0.747730,0.562933,-0.281752,0.211239,133,32.866364,-117.254146,-36.353525,-2455694.582375,-4767178.250528,3441499.815152,4.763457
3437901124042,3443726257000,1422735113825135104,3443726257000,825143000,25,2,4,20,11,35,825,16,23.330000,101.729004,0.155089,0.552761,-0.064198,6.472724,0.002731,7.368150,25,2,4,20,11,35,599,9,3,32.866370,-117.254141,-36.829000,-2455693.765111,-4767177.673445,3441500.053076,14.096944,38.031586,45.084465,73.985954,41.237686,-179.901413,0.747729,0.562931,-0.281749,0.211251,32901,32.866364,-117.254146,-36.352164,-2455694.583470,-4767178.251488,3441499.815565,4.767496
3437926426172,3443751256000,1422735113850134016,3443751256000,850142000,25,2,4,20,11,35,850,16,23.325001,101.729004,0.155286,0.549647,-0.063192,6.471099,0.019831,7.399057,25,2,4,20,11,35,799,9,3,32.866370,-117.254143,-36.569000,-2455694.025111,-4767177.793445,3441500.183076,14.115122,38.102612,45.191402,73.985756,41.236744,-179.901581,0.747732,0.562932,-0.281743,0.211247,32901,32.866364,-117.254146,-36.350775,-2455694.584641,-4767178.252482,3441499.815926,4.770194
3437950674486,3443776257000,1422735113875134976,3443776257000,875143000,25,2,4,20,11,35,875,0,23.330002,101.729004,0.156227,0.551342,-0.063222,6.460933,0.023123,7.366422,25,2,4,20,11,35,799,9,3,32.866370,-117.254143,-36.569000,-2455694.025111,-4767177.793445,3441500.183076,14.115122,38.102612,45.191402,73.986481,41.235844,-179.901169,0.747731,0.562938,-0.281738,0.211242,30853,32.866363,-117.254146,-36.306294,-2455694.633316,-4767178.293020,3441499.807613,4.755244
3437976027746,3443801257000,1422735113900134912,3443801257000,900143000,25,2,4,20,11,35,900,16,23.330000,101.716003,0.156222,0.551350,-0.062272,6.451769,0.002291,7.394771,25,2,4,20,11,35,799,9,3,32.866370,-117.254143,-36.569000,-2455694.025111,-4767177.793445,3441500.183076,14.115122,38.102612,45.191402,73.987137,41.236267,-179.901184,0.747727,0.562941,-0.281739,0.211246,30853,32.866363,-117.254146,-36.304959,-2455694.634582,-4767178.294009,3441499.807816,4.758556
3438000420023,3443826257000,1422735113925134848,3443826257000,925143000,25,2,4,20,11,35,925,16,23.330000,101.729004,0.155289,0.549644,-0.063667,6.435711,0.008158,7.358613,25,2,4,20,11,35,799,9,3,32.866370,-117.254143,-36.569000,-2455694.025111,-4767177.793445,3441500.183076,14.115122,38.102612,45.191402,73.987610,41.236137,-179.901550,0.747724,0.562945,-0.281736,0.211249,32901,32.866363,-117.254146,-36.303570,-2455694.635788,-4767178.295082,3441499.808044,4.761875
3438025757820,3443851257000,1422735113950135040,3443851257000,950143000,25,2,4,20,11,35,950,16,23.314999,101.725006,0.155999,0.551091,-0.064168,6.456161,-0.004998,7.341545,25,2,4,20,11,35,799,9,3,32.866370,-117.254143,-36.569000,-2455694.025111,-4767177.793445,3441500.183076,14.115122,38.102612,45.191402,73.987953,41.236423,-179.901382,0.747722,0.562947,-0.281738,0.211250,32901,32.866363,-117.254146,-36.302127,-2455694.637103,-4767178.296165,3441499.808281,4.765200
3438051073320,3443876257000,1422735113975134976,3443876257000,975143000,25,2,4,20,11,35,975,0,23.330000,101.716003,0.155535,0.551087,-0.063930,6.488693,0.024758,7.370220,25,2,4,20,11,35,799,9,3,32.866370,-117.254143,-36.569000,-2455694.025111,-4767177.793445,3441500.183076,14.115122,38.102612,45.191402,73.988373,41.236931,-179.900970,0.747720,0.562947,-0.281742,0.211251,8325,32.866363,-117.254146,-36.300819,-2455694.638352,-4767178.297148,3441499.808455,4.768531
3438076385838,3443901257000,1422735114000134912,3443901257000,145000,25,2,4,20,11,36,0,16,23.319998,101.725006,0.155746,0.550146,-0.061776,6.463167,0.026263,7.363913,25,2,4,20,11,35,799,9,3,32.866370,-117.254143,-36.569000,-2455694.025111,-4767177.793445,3441500.183076,14.115122,38.102612,45.191402,73.989273,41.237598,-179.900574,0.747714,0.562951,-0.281747,0.211254,8325,32.866363,-117.254146,-36.299503,-2455694.639537,-4767178.298111,3441499.808714,4.771870
3438100632023,3443926257000,1422735114025134848,3443926257000,25145000,25,2,4,20,11,36,25,16,23.330000,101.716003,0.155538,0.552544,-0.062056,6.446584,-0.000274,7.376544,25,2,4,20,11,35,799,9,3,32.866370,-117.254143,-36.569000,-2455694.025111,-4767177.793445,3441500.183076,14.115122,38.102612,45.191402,73.989571,41.237366,-179.902023,0.747711,0.562957,-0.281738,0.211262,45189,32.866363,-117.254146,-36.298115,-2455694.640725,-4767178.299189,3441499.808946,4.775214
3438125926505,3443951256000,1422735114050135808,3443951256000,50144000,25,2,4,20,11,36,50,16,23.325001,101.729004,0.155294,0.551097,-0.062268,6.431061,0.022755,7.382514,25,2,4,20,11,36,0,9,3,32.866369,-117.254143,-36.638000,-2455693.995111,-4767177.763445,3441500.123076,14.133389,38.179131,45.307049,73.991035,41.236885,-179.901947,0.747705,0.562967,-0.281732,0.211263,45189,32.866363,-117.254146,-36.296803,-2455694.642024,-4767178.300182,3441499.809076,4.777895
3438151224171,3443976257000,1422735114075137024,3443976257000,75145000,25,2,4,20,11,36,75,0,23.314999,101.729004,0.155757,0.549642,-0.064617,6.455593,0.004857,7.393271,25,2,4,20,11,36,0,9,3,32.866369,-117.254143,-36.638000,-2455693.995111,-4767177.763445,3441500.123076,14.133389,38.179131,45.307049,73.992058,41.237469,-179.900238,0.747702,0.562969,-0.281743,0.211258,133,32.866363,-117.254147,-36.290403,-2455694.722255,-4767178.265671,3441499.811490,4.766634
3438175468171,3444001257000,1422735114100136704,3444001257000,100145000,25,2,4,20,11,36,100,16,23.319998,101.712006,0.155984,0.550626,-0.062259,6.462611,0.030484,7.359237,25,2,4,20,11,36,0,9,3,32.866369,-117.254143,-36.638000,-2455693.995111,-4767177.763445,3441500.123076,14.133389,38.179131,45.307049,73.991371,41.237103,-179.900192,0.747706,0.562965,-0.281742,0.211254,133,32.866363,-117.254147,-36.289028,-2455694.723809,-4767178.266590,3441499.811656,4.769944
