systemTimeStamp,timeStartup,timeGps,timeSyncIn,timeGpsPps,utcYear,utcMonth,utcDay,utcHour,utcMinute,utcSecond,utcFracsec,imuStatus,temperature,pressure,magX,magY,magZ,accelX,accelY,accelZ,gps1UtcYear,gps1UtcMonth,gps1UtcDay,gps1UtcHour,gps1UtcMinute,gps1UtcSecond,gps1UtcFracsec,gnss1NumSats,gnss1Fix,gnss1PosLat,gnss1PosLon,gnss1PosAlt,gnss1PosEcefX,gnss1PosEcefY,gnss1PosEcefY,gnss1PosUncertaintyN,gnss1PosUncertaintyE,gnss1PosUncertaintyD,yaw,pitch,roll,quatX,quatY,quatZ,quatW,insStatus,lat,lon,alt,posEcefX,posEcefY,posEcefZ,posU
2623176165639,2629001257000,1422734299098610432,2629001257000,98619000,25,2,4,19,58,1,98,16,23.580002,101.729004,0.155130,0.550626,-0.062971,6.430997,0.025613,7.386585,25,2,4,19,58,1,0,8,3,32.866390,-117.254096,-36.754000,-2455689.535111,-4767178.543445,3441501.983076,14.381355,32.343513,74.344147,74.089546,41.263203,-179.885269,0.747187,0.563520,-0.281804,0.211526,133,32.866380,-117.254132,-29.058169,-2455695.772619,-4767183.447068,3441505.264622,4.767440
2623199385787,2629026257000,1422734299123610624,2629026257000,123619000,25,2,4,19,58,1,123,16,23.580002,101.729004,0.156525,0.550149,-0.064863,6.467414,0.005726,7.347175,25,2,4,19,58,1,0,8,3,32.866390,-117.254096,-36.754000,-2455689.535111,-4767178.543445,3441501.983076,14.381355,32.343513,74.344147,74.090240,41.262207,-179.885010,0.747187,0.563526,-0.281797,0.211521,32901,32.866380,-117.254132,-29.053076,-2455695.775264,-4767183.450245,3441505.267761,4.770314
2623224691490,2629051257000,1422734299148610304,2629051257000,148619000,25,2,4,19,58,1,148,16,23.570000,101.737007,0.156064,0.550625,-0.064634,6.469647,0.010168,7.335773,25,2,4,19,58,1,0,8,3,32.866390,-117.254096,-36.754000,-2455689.535111,-4767178.543445,3441501.983076,14.381355,32.343513,74.344147,74.089012,41.262283,-179.885147,0.747192,0.563518,-0.281800,0.211520,32901,32.866380,-117.254132,-29.047985,-2455695.777934,-4767183.453410,3441505.270894,4.773194
2623248937361,2629076257000,1422734299173610496,2629076257000,173619000,25,2,4,19,58,1,173,0,23.569998,101.725006,0.156525,0.551121,-0.063455,6.445107,-0.000738,7.356338,25,2,4,19,58,1,0,8,3,32.866390,-117.254096,-36.754000,-2455689.535111,-4767178.543445,3441501.983076,14.381355,32.343513,74.344147,74.088562,41.263401,-179.884445,0.747193,0.563511,-0.281811,0.211519,133,32.866380,-117.254132,-29.042804,-2455695.780590,-4767183.456649,3441505.274101,4.776079
2623274234490,2629101257000,1422734299198610432,2629101257000,198619000,25,2,4,19,58,1,198,16,23.590000,101.729004,0.155830,0.551602,-0.062275,6.463348,0.011451,7.376235,25,2,4,19,58,1,0,8,3,32.866390,-117.254096,-36.754000,-2455689.535111,-4767178.543445,3441501.983076,14.381355,32.343513,74.344147,74.087929,41.263607,-179.885513,0.747194,0.563509,-0.281808,0.211526,133,32.866380,-117.254132,-29.037751,-2455695.783296,-4767183.459745,3441505.277236,4.778970
2623298477750,2629126257000,1422734299223610368,2629126257000,223619000,25,2,4,19,58,1,223,16,23.580000,101.725006,0.155595,0.550872,-0.062975,6.433150,0.012851,7.378685,25,2,4,19,58,1,0,8,3,32.866390,-117.254096,-36.754000,-2455689.535111,-4767178.543445,3441501.983076,14.381355,32.343513,74.344147,74.086922,41.264095,-179.885803,0.747197,0.563502,-0.281812,0.211528,32901,32.866380,-117.254132,-29.032616,-2455695.786002,-4767183.462960,3441505.280357,4.781867
2623324828287,2629151256000,1422734299248609536,2629151256000,248618000,25,2,4,19,58,1,248,16,23.574999,101.737007,0.156056,0.550883,-0.062500,6.460953,0.015500,7.363238,25,2,4,19,58,1,199,8,3,32.866390,-117.254096,-36.805000,-2455689.505111,-4767178.503445,3441501.963076,14.381409,32.345345,74.277977,74.087807,41.262730,-179.885040,0.747197,0.563509,-0.281805,0.211518,32901,32.866379,-117.254131,-29.088227,-2455695.747002,-4767183.440482,3441505.236453,4.784189
2623349073694,2629176257000,1422734299273610240,2629176257000,273619000,25,2,4,19,58,1,273,0,23.584999,101.725006,0.155366,0.550623,-0.063683,6.471752,0.008632,7.341769,25,2,4,19,58,1,199,8,3,32.866390,-117.254096,-36.805000,-2455689.505111,-4767178.503445,3441501.963076,14.381409,32.345345,74.277977,74.088326,41.263195,-179.883759,0.747196,0.563508,-0.281814,0.211513,133,32.866379,-117.254131,-29.083129,-2455695.749600,-4767183.443813,3441505.239421,4.771765
2623374370287,2629201257000,1422734299298610432,2629201257000,298619000,25,2,4,19,58,1,298,16,23.570000,101.725006,0.154909,0.551096,-0.063929,6.462404,0.017611,7.371592,25,2,4,19,58,1,199,8,3,32.866390,-117.254096,-36.805000,-2455689.505111,-4767178.503445,3441501.963076,14.381409,32.345345,74.277977,74.088387,41.263077,-179.884186,0.747195,0.563510,-0.281811,0.211516,133,32.866379,-117.254131,-29.078045,-2455695.752200,-4767183.447045,3441505.242500,4.774632
2623398613601,2629226257000,1422734299323610624,2629226257000,323619000,25,2,4,19,58,1,323,16,23.570000,101.725006,0.155372,0.551589,-0.063225,6.447591,0.017173,7.364822,25,2,4,19,58,1,199,8,3,32.866390,-117.254096,-36.805000,-2455689.505111,-4767178.503445,3441501.963076,14.381409,32.345345,74.277977,74.087250,41.263176,-179.884033,0.747201,0.563502,-0.281814,0.211512,32901,32.866379,-117.254131,-29.073090,-2455695.754786,-4767183.450155,3441505.245521,4.777505
2623424964472,2629251257000,1422734299348610304,2629251257000,348619000,25,2,4,19,58,1,348,16,23.574999,101.725006,0.155599,0.550867,-0.063688,6.427026,0.011668,7.389271,25,2,4,19,58,1,199,8,3,32.866390,-117.254096,-36.805000,-2455689.505111,-4767178.503445,3441501.963076,14.381409,32.345345,74.277977,74.087204,41.263340,-179.882919,0.747203,0.563499,-0.281821,0.211506,32901,32.866379,-117.254131,-29.068044,-2455695.757362,-4767183.453360,3441505.248582,4.780384
2623449208861,2629276257000,1422734299373610496,2629276257000,373619000,25,2,4,19,58,1,373,0,23.575001,101.729004,0.156751,0.551134,-0.062267,6.455590,0.028788,7.375977,25,2,4,19,58,1,199,8,3,32.866390,-117.254096,-36.805000,-2455689.505111,-4767178.503445,3441501.963076,14.381409,32.345345,74.277977,74.087395,41.262611,-179.882111,0.747205,0.563499,-0.281820,0.211497,133,32.866379,-117.254131,-29.062973,-2455695.759986,-4767183.456551,3441505.251675,4.783268
2623474519694,2629301257000,1422734299398610432,2629301257000,398619000,25,2,4,19,58,1,398,16,23.590000,101.742004,0.155850,0.552549,-0.064193,6.471885,0.016094,7.365739,25,2,4,19,58,1,199,8,3,32.866390,-117.254096,-36.805000,-2455689.505111,-4767178.503445,3441501.963076,14.381409,32.345345,74.277977,74.087105,41.261974,-179.882111,0.747208,0.563498,-0.281816,0.211494,133,32.866380,-117.254131,-29.057956,-2455695.762567,-4767183.459769,3441505.254663,4.786159
2623499853657,2629326257000,1422734299423610368,2629326257000,423619000,25,2,4,19,58,1,423,16,23.580000,101.725006,0.154436,0.550616,-0.062970,6.444396,0.024046,7.375131,25,2,4,19,58,1,199,8,3,32.866390,-117.254096,-36.805000,-2455689.505111,-4767178.503445,3441501.963076,14.381409,32.345345,74.277977,74.086319,41.261223,-179.882309,0.747213,0.563495,-0.281812,0.211489,32901,32.866380,-117.254131,-29.052813,-2455695.765235,-4767183.463050,3441505.257735,4.789055
2623524178842,2629351256000,1422734299448609280,2629351256000,448618000,25,2,4,19,58,1,448,16,23.584999,101.729004,0.156289,0.551126,-0.062505,6.458943,0.018828,7.394475,25,2,4,19,58,1,399,8,3,32.866390,-117.254096,-36.849000,-2455689.505111,-4767178.473445,3441501.923076,14.381747,32.347557,74.212601,74.086258,41.261730,-179.881638,0.747214,0.563492,-0.281818,0.211487,32901,32.866380,-117.254131,-29.047955,-2455695.767717,-4767183.466144,3441505.260671,4.791377
2623549481416,2629376257000,1422734299473610496,2629376257000,473619000,25,2,4,19,58,1,473,0,23.585001,101.725006,0.156068,0.551108,-0.064405,6.473919,0.015149,7.362096,25,2,4,19,58,1,399,8,3,32.866390,-117.254096,-36.849000,-2455689.505111,-4767178.473445,3441501.923076,14.381747,32.347557,74.212601,74.085358,41.261799,-179.881409,0.747218,0.563486,-0.281822,0.211484,133,32.866379,-117.254131,-29.115903,-2455695.729738,-4767183.423690,3441505.220794,4.781081
2623574787287,2629401261000,1422734299498614528,2629401261000,498623000,25,2,4,19,58,1,498,16,23.590000,101.729004,0.155594,0.549900,-0.064383,6.465872,0.021679,7.362634,25,2,4,19,58,1,399,8,3,32.866390,-117.254096,-36.849000,-2455689.505111,-4767178.473445,3441501.923076,14.381747,32.347557,74.212601,74.083145,41.261673,-179.882050,0.747228,0.563473,-0.281822,0.211482,133,32.866379,-117.254131,-29.110928,-2455695.732302,-4767183.426866,3441505.223775,4.783959
2623599104879,2629426257000,1422734299523610368,2629426257000,523619000,25,2,4,19,58,1,523,16,23.590000,101.717003,0.156078,0.551581,-0.065363,6.468091,0.020647,7.344425,25,2,4,19,58,1,399,8,3,32.866390,-117.254096,-36.849000,-2455689.505111,-4767178.473445,3441501.923076,14.381747,32.347557,74.212601,74.082275,41.262131,-179.881622,0.747232,0.563465,-0.281828,0.211479,133,32.866379,-117.254131,-29.105935,-2455695.734880,-4767183.430099,3441505.226700,4.786842
2623624414638,2629451257000,1422734299548610560,2629451257000,548619000,25,2,4,19,58,1,548,16,23.574999,101.725006,0.156062,0.551361,-0.062746,6.472957,0.014779,7.369277,25,2,4,19,58,1,399,8,3,32.866390,-117.254096,-36.849000,-2455689.505111,-4767178.473445,3441501.923076,14.381747,32.347557,74.212601,74.080147,41.262638,-179.883514,0.747238,0.563455,-0.281826,0.211489,32901,32.866379,-117.254131,-29.100973,-2455695.737405,-4767183.433259,3441505.229706,4.789731
2623649714305,2629476257000,1422734299573610496,2629476257000,573619000,25,2,4,19,58,1,573,0,23.574997,101.729004,0.156291,0.550880,-0.063213,6.458889,0.019174,7.355279,25,2,4,19,58,1,399,8,3,32.866390,-117.254096,-36.849000,-2455689.505111,-4767178.473445,3441501.923076,14.381747,32.347557,74.212601,74.078407,41.263050,-179.884567,0.747244,0.563446,-0.281827,0.211493,32901,32.866379,-117.254131,-29.095943,-2455695.740022,-4767183.436487,3441505.232679,4.792625
2623673956564,2629501257000,1422734299598610432,2629501257000,598619000,25,2,4,19,58,1,598,16,23.570000,101.737007,0.156063,0.550385,-0.064630,6.482255,0.020876,7.354774,25,2,4,19,58,1,399,8,3,32.866390,-117.254096,-36.849000,-2455689.505111,-4767178.473445,3441501.923076,14.381747,32.347557,74.212601,74.078972,41.263702,-179.883484,0.747241,0.563446,-0.281836,0.211491,133,32.866379,-117.254131,-29.090975,-2455695.742558,-4767183.439652,3441505.235681,4.795526
2623699265453,2629526257000,1422734299623610624,2629526257000,623619000,25,2,4,19,58,1,623,16,23.580002,101.729004,0.155820,0.550885,-0.061788,6.453135,0.002620,7.402706,25,2,4,19,58,1,399,8,3,32.866390,-117.254096,-36.849000,-2455689.505111,-4767178.473445,3441501.923076,14.381747,32.347557,74.212601,74.080498,41.264977,-179.880692,0.747236,0.563446,-0.281855,0.211483,133,32.866379,-117.254131,-29.086000,-2455695.745060,-4767183.442836,3441505.238693,4.798432
2623724560379,2629551257000,1422734299648610304,2629551257000,648619000,25,2,4,19,58,1,648,16,23.584999,101.742004,0.155844,0.551582,-0.064888,6.456374,-0.010102,7.369868,25,2,4,19,58,1,599,8,3,32.866390,-117.254096,-37.075000,-2455689.415111,-4767178.323445,3441501.793076,14.382143,32.349823,74.148338,74.080330,41.265495,-179.880859,0.747235,0.563445,-0.281858,0.211486,32901,32.866379,-117.254131,-29.153511,-2455695.720045,-4767183.397315,3441505.194655,4.800762
2623748824064,2629576257000,1422734299673610496,2629576257000,673619000,25,2,4,19,58,1,673,0,23.590000,101.729004,0.155589,0.550638,-0.062258,6.449097,0.001200,7.354325,25,2,4,19,58,1,599,8,3,32.866390,-117.254096,-37.075000,-2455689.415111,-4767178.323445,3441501.793076,14.382143,32.349823,74.148338,74.077934,41.264194,-179.883591,0.747245,0.563438,-0.281840,0.211492,32901,32.866379,-117.254131,-29.148540,-2455695.722686,-4767183.400542,3441505.197502,4.791383
2623774271175,2629601257000,1422734299698610432,2629601257000,698619000,25,2,4,19,58,1,698,16,23.590000,101.742004,0.156056,0.550394,-0.063442,6.488533,0.010104,7.371238,25,2,4,19,58,1,599,8,3,32.866390,-117.254096,-37.075000,-2455689.415111,-4767178.323445,3441501.793076,14.382143,32.349823,74.148338,74.078232,41.264751,-179.881470,0.747246,0.563434,-0.281854,0.211481,133,32.866379,-117.254131,-29.143651,-2455695.725204,-4767183.403666,3441505.200429,4.794276
2623799584157,2629626257000,1422734299723610368,2629626257000,723619000,25,2,4,19,58,1,723,16,23.590000,101.729004,0.155376,0.550608,-0.065584,6.463273,0.020208,7.377061,25,2,4,19,58,1,599,8,3,32.866390,-117.254096,-37.075000,-2455689.415111,-4767178.323445,3441501.793076,14.382143,32.349823,74.148338,74.075668,41.265694,-179.882095,0.747255,0.563417,-0.281861,0.211484,133,32.866379,-117.254131,-29.138620,-2455695.727780,-4767183.406935,3441505.203375,4.797174
2623823825138,2629651257000,1422734299748610560,2629651257000,748619000,25,2,4,19,58,1,748,16,23.584999,101.729004,0.156047,0.550407,-0.061779,6.448565,0.014997,7.400038,25,2,4,19,58,1,599,8,3,32.866390,-117.254096,-37.075000,-2455689.415111,-4767178.323445,3441501.793076,14.382143,32.349823,74.148338,74.074425,41.266548,-179.882675,0.747258,0.563409,-0.281866,0.211489,32901,32.866379,-117.254131,-29.133656,-2455695.730344,-4767183.410092,3441505.206362,4.800078
2623849137731,2629676257000,1422734299773610240,2629676257000,773619000,25,2,4,19,58,1,773,0,23.590000,101.729004,0.154897,0.549652,-0.064141,6.458053,0.005300,7.382256,25,2,4,19,58,1,599,8,3,32.866390,-117.254096,-37.075000,-2455689.415111,-4767178.323445,3441501.793076,14.382143,32.349823,74.148338,74.074165,41.265518,-179.882278,0.747263,0.563408,-0.281862,0.211480,32901,32.866379,-117.254131,-29.128825,-2455695.732848,-4767183.413195,3441505.209220,4.802988
2623874434379,2629701257000,1422734299798610432,2629701257000,798619000,25,2,4,19,58,1,798,16,23.580002,101.729004,0.155607,0.550855,-0.065113,6.462976,0.002404,7.399704,25,2,4,19,58,1,599,8,3,32.866390,-117.254096,-37.075000,-2455689.415111,-4767178.323445,3441501.793076,14.382143,32.349823,74.148338,74.074364,41.265167,-179.881226,0.747264,0.563407,-0.281865,0.211472,133,32.866379,-117.254131,-29.123848,-2455695.735410,-4767183.416438,3441505.212112,4.805904
2623899728509,2629726257000,1422734299823610624,2629726257000,823619000,25,2,4,19,58,1,823,16,23.590000,101.729004,0.155363,0.549896,-0.064383,6.465012,0.021083,7.345829,25,2,4,19,58,1,599,8,3,32.866390,-117.254096,-37.075000,-2455689.415111,-4767178.323445,3441501.793076,14.382143,32.349823,74.148338,74.073891,41.265461,-179.881378,0.747266,0.563404,-0.281867,0.211473,133,32.866379,-117.254131,-29.118838,-2455695.738039,-4767183.419628,3441505.215093,4.808826
2623923964138,2629751257000,1422734299848610304,2629751257000,848619000,25,2,4,19,58,1,848,16,23.590000,101.742004,0.156064,0.550627,-0.064396,6.469767,0.024597,7.371421,25,2,4,19,58,1,799,8,3,32.866390,-117.254097,-37.071000,-2455689.475111,-4767178.303445,3441501.773076,14.382897,32.352715,74.086777,74.073112,41.265442,-179.882401,0.747268,0.563401,-0.281863,0.211478,32901,32.866379,-117.254131,-29.184539,-2455695.705579,-4767183.375758,3441505.177394,4.811168
2623949259638,2629776257000,1422734299873610496,2629776257000,873619000,25,2,4,19,58,1,873,0,23.590000,101.729004,0.156762,0.550875,-0.064638,6.432341,0.016426,7.368025,25,2,4,19,58,1,799,8,3,32.866390,-117.254097,-37.071000,-2455689.475111,-4767178.303445,3441501.773076,14.382897,32.352715,74.086777,74.071907,41.266609,-179.882660,0.747270,0.563392,-0.281871,0.211483,32901,32.866379,-117.254131,-29.179647,-2455695.708088,-4767183.378957,3441505.180228,4.801177
2623974554897,2629801257000,1422734299898610432,2629801257000,898619000,25,2,4,19,58,1,898,16,23.580000,101.737007,0.155600,0.550134,-0.065100,6.433565,0.019325,7.374187,25,2,4,19,58,1,799,8,3,32.866390,-117.254097,-37.071000,-2455689.475111,-4767178.303445,3441501.773076,14.382897,32.352715,74.086777,74.070053,41.266052,-179.882889,0.747280,0.563382,-0.281870,0.211477,133,32.866379,-117.254131,-29.174797,-2455695.710555,-4767183.382102,3441505.183089,4.804082
2623998751416,2629826257000,1422734299923610368,2629826257000,923619000,25,2,4,19,58,1,923,16,23.580000,101.725006,0.155589,0.549907,-0.063433,6.463805,0.028085,7.371914,25,2,4,19,58,1,799,8,3,32.866390,-117.254097,-37.071000,-2455689.475111,-4767178.303445,3441501.773076,14.382897,32.352715,74.086777,74.069313,41.264572,-179.883041,0.747287,0.563380,-0.281861,0.211469,133,32.866379,-117.254131,-29.169853,-2455695.713129,-4767183.385298,3441505.185978,4.806993
2624024041101,2629851257000,1422734299948610560,2629851257000,948619000,25,2,4,19,58,1,948,16,23.584999,101.729004,0.154903,0.550128,-0.064625,6.455902,0.023798,7.372818,25,2,4,19,58,1,799,8,3,32.866390,-117.254097,-37.071000,-2455689.475111,-4767178.303445,3441501.773076,14.382897,32.352715,74.086777,74.069870,41.263927,-179.881958,0.747288,0.563382,-0.281861,0.211460,32901,32.866379,-117.254131,-29.165054,-2455695.715601,-4767183.388362,3441505.188854,4.809910
2624049333175,2629876257000,1422734299973610496,2629876257000,973619000,25,2,4,19,58,1,973,0,23.574997,101.729004,0.156057,0.550392,-0.063679,6.482468,-0.000434,7.374258,25,2,4,19,58,1,799,8,3,32.866390,-117.254097,-37.071000,-2455689.475111,-4767178.303445,3441501.773076,14.382897,32.352715,74.086777,74.069740,41.263218,-179.880569,0.747293,0.563379,-0.281864,0.211447,32901,32.866379,-117.254131,-29.160171,-2455695.718125,-4767183.391503,3441505.191742,4.812833
2624074624120,2629901257000,1422734299998610432,2629901257000,998619000,25,2,4,19,58,1,998,16,23.580000,101.737007,0.155362,0.550140,-0.063912,6.461392,0.015492,7.396975,25,2,4,19,58,1,799,8,3,32.866390,-117.254097,-37.071000,-2455689.475111,-4767178.303445,3441501.773076,14.382897,32.352715,74.086777,74.069527,41.263130,-179.879822,0.747296,0.563376,-0.281867,0.211441,133,32.866379,-117.254131,-29.155262,-2455695.720657,-4767183.394646,3441505.194666,4.815762
2624098860490,2629926257000,1422734300023610368,2629926257000,23621000,25,2,4,19,58,2,23,16,23.580002,101.729004,0.155375,0.550608,-0.065584,6.470188,0.019967,7.374113,25,2,4,19,58,1,799,8,3,32.866390,-117.254097,-37.071000,-2455689.475111,-4767178.303445,3441501.773076,14.382897,32.352715,74.086777,74.068245,41.263565,-179.880188,0.747300,0.563368,-0.281871,0.211443,133,32.866379,-117.254131,-29.150286,-2455695.723167,-4767183.397914,3441505.197559,4.818697
2624124158860,2629951256000,1422734300048611328,2629951256000,48620000,25,2,4,19,58,2,48,16,23.584999,101.742004,0.155595,0.550384,-0.063917,6.465519,0.032582,7.367172,25,2,4,19,58,2,0,8,3,32.866390,-117.254097,-37.136000,-2455689.425111,-4767178.273445,3441501.743076,14.384371,32.358212,74.056648,74.067856,41.262634,-179.879944,0.747305,0.563366,-0.281867,0.211435,133,32.866379,-117.254131,-29.145607,-2455695.725636,-4767183.400902,3441505.200320,4.821049
2624149457175,2629976258000,1422734300073613312,2629976258000,73622000,25,2,4,19,58,2,73,0,23.575001,101.729004,0.155593,0.549169,-0.065558,6.452047,0.039089,7.373169,25,2,4,19,58,2,0,8,3,32.866390,-117.254097,-37.136000,-2455689.425111,-4767178.273445,3441501.743076,14.384371,32.358212,74.056648,74.067894,41.261875,-179.878693,0.747309,0.563365,-0.281868,0.211423,32901,32.866380,-117.254130,-29.230681,-2455695.599854,-4767183.374342,3441505.169252,4.802104
2624173698601,2630001257000,1422734300098612224,2630001257000,98621000,25,2,4,19,58,2,98,16,23.590000,101.729004,0.155365,0.550623,-0.063683,6.464656,0.011803,7.366733,25,2,4,19,58,2,0,8,3,32.866390,-117.254097,-37.136000,-2455689.425111,-4767178.273445,3441501.743076,14.384371,32.358212,74.056648,74.067955,41.260777,-179.878326,0.747312,0.563367,-0.281862,0.211416,32901,32.866380,-117.254130,-29.225848,-2455695.602080,-4767183.377594,3441505.172105,4.804977
2624198991490,2630026258000,1422734300123613440,2630026258000,123622000,25,2,4,19,58,2,123,16,23.580000,101.725006,0.155145,0.551091,-0.064879,6.461423,0.014610,7.374696,25,2,4,19,58,2,0,8,3,32.866390,-117.254097,-37.136000,-2455689.425111,-4767178.273445,3441501.743076,14.384371,32.358212,74.056648,74.067375,41.260838,-179.878067,0.747315,0.563362,-0.281865,0.211413,133,32.866380,-117.254130,-29.221019,-2455695.604178,-4767183.380795,3441505.175112,4.807856
2624224288249,2630051257000,1422734300148612352,2630051257000,148621000,25,2,4,19,58,2,148,16,23.590000,101.742004,0.155824,0.549904,-0.064146,6.460802,0.006935,7.392557,25,2,4,19,58,2,0,8,3,32.866390,-117.254097,-37.136000,-2455689.425111,-4767178.273445,3441501.743076,14.384371,32.358212,74.056648,74.066711,41.261719,-179.877762,0.747317,0.563355,-0.281873,0.211414,133,32.866380,-117.254130,-29.216254,-2455695.606304,-4767183.384015,3441505.177956,4.810741
2624248528953,2630076257000,1422734300173612288,2630076257000,173621000,25,2,4,19,58,2,173,0,23.584999,101.737007,0.155819,0.548693,-0.065312,6.435892,0.024495,7.339363,25,2,4,19,58,2,0,8,3,32.866390,-117.254097,-37.136000,-2455689.425111,-4767178.273445,3441501.743076,14.384371,32.358212,74.056648,74.065575,41.261253,-179.877945,0.747323,0.563349,-0.281872,0.211410,32901,32.866380,-117.254130,-29.211427,-2455695.608380,-4767183.387323,3441505.180827,4.813631
2624273818842,2630101257000,1422734300198612480,2630101257000,198621000,25,2,4,19,58,2,198,16,23.590000,101.729004,0.154660,0.549898,-0.062958,6.456351,-0.000384,7.386580,25,2,4,19,58,2,0,8,3,32.866390,-117.254097,-37.136000,-2455689.425111,-4767178.273445,3441501.743076,14.384371,32.358212,74.056648,74.063934,41.261570,-179.879135,0.747328,0.563341,-0.281871,0.211415,32901,32.866380,-117.254130,-29.206642,-2455695.610499,-4767183.390499,3441505.183772,4.816527
2624299108138,2630126257000,1422734300223612416,2630126257000,223621000,25,2,4,19,58,2,223,16,23.580002,101.729004,0.155599,0.550136,-0.064863,6.452523,0.010693,7.367142,25,2,4,19,58,2,0,8,3,32.866390,-117.254097,-37.136000,-2455689.425111,-4767178.273445,3441501.743076,14.384371,32.358212,74.056648,74.064445,41.260090,-179.879532,0.747329,0.563348,-0.281858,0.211412,133,32.866380,-117.254130,-29.201740,-2455695.612633,-4767183.393859,3441505.186671,4.819429
2624324398138,2630151256000,1422734300248611328,2630151256000,248620000,25,2,4,19,58,2,248,16,23.590000,101.729004,0.155134,0.549890,-0.064858,6.449560,0.019752,7.405948,25,2,4,19,58,2,199,8,3,32.866390,-117.254096,-37.235000,-2455689.345111,-4767178.223445,3441501.683076,14.386105,32.361881,74.027939,74.063919,41.258381,-179.879288,0.747336,0.563347,-0.281849,0.211400,133,32.866380,-117.254130,-29.197096,-2455695.614709,-4767183.396915,3441505.189550,4.821755
2624348631360,2630176257000,1422734300273612288,2630176257000,273621000,25,2,4,19,58,2,273,0,23.590000,101.729004,0.155128,0.549899,-0.063670,6.480008,0.025931,7.362772,25,2,4,19,58,2,199,8,3,32.866390,-117.254096,-37.235000,-2455689.345111,-4767178.223445,3441501.683076,14.386105,32.361881,74.027939,74.064056,41.257942,-179.877930,0.747339,0.563345,-0.281853,0.211390,32901,32.866380,-117.254130,-29.315843,-2455695.499819,-4767183.336628,3441505.135118,4.804253
2624373918212,2630201257000,1422734300298612480,2630201257000,298621000,25,2,4,19,58,2,298,16,23.570000,101.725006,0.155594,0.549413,-0.065087,6.460097,0.022504,7.405459,25,2,4,19,58,2,199,8,3,32.866390,-117.254096,-37.235000,-2455689.345111,-4767178.223445,3441501.683076,14.386105,32.361881,74.027939,74.062737,41.257496,-179.878021,0.747346,0.563338,-0.281852,0.211385,32901,32.866380,-117.254130,-29.311228,-2455695.501619,-4767183.339821,3441505.137953,4.807101
2624399206434,2630226257000,1422734300323612416,2630226257000,323621000,25,2,4,19,58,2,323,16,23.570000,101.737007,0.155136,0.550374,-0.064391,6.474313,0.039854,7.347367,25,2,4,19,58,2,199,8,3,32.866390,-117.254096,-37.235000,-2455689.345111,-4767178.223445,3441501.683076,14.386105,32.361881,74.027939,74.061447,41.258938,-179.878265,0.747349,0.563327,-0.281862,0.211390,133,32.866380,-117.254130,-29.306482,-2455695.503403,-4767183.343176,3441505.140817,4.809955
2624423443082,2630251257000,1422734300348612352,2630251257000,348621000,25,2,4,19,58,2,348,16,23.584999,101.729004,0.155589,0.549665,-0.063666,6.454957,0.012606,7.329176,25,2,4,19,58,2,199,8,3,32.866390,-117.254096,-37.235000,-2455689.345111,-4767178.223445,3441501.683076,14.386105,32.361881,74.027939,74.061569,41.258633,-179.877304,0.747351,0.563326,-0.281865,0.211383,133,32.866380,-117.254130,-29.301812,-2455695.505234,-4767183.346411,3441505.143675,4.812815
2624448736805,2630276257000,1422734300373612288,2630276257000,373621000,25,2,4,19,58,2,373,0,23.590000,101.729004,0.156292,0.549175,-0.066033,6.470529,0.022894,7.336173,25,2,4,19,58,2,199,8,3,32.866390,-117.254096,-37.235000,-2455689.345111,-4767178.223445,3441501.683076,14.386105,32.361881,74.027939,74.060585,41.258129,-179.877701,0.747356,0.563322,-0.281862,0.211381,32901,32.866380,-117.254130,-29.297085,-2455695.506980,-4767183.349695,3441505.146628,4.815681
2624474032601,2630301257000,1422734300398612224,2630301257000,398621000,25,2,4,19,58,2,398,16,23.590000,101.729004,0.156524,0.550639,-0.063684,6.476120,0.014576,7.371839,25,2,4,19,58,2,199,8,3,32.866390,-117.254096,-37.235000,-2455689.345111,-4767178.223445,3441501.683076,14.386105,32.361881,74.027939,74.061279,41.258129,-179.875610,0.747356,0.563321,-0.281871,0.211369,32901,32.866380,-117.254130,-29.292322,-2455695.508820,-4767183.352994,3441505.149561,4.818552
2624499329934,2630326257000,1422734300423612416,2630326257000,423621000,25,2,4,19,58,2,423,16,23.570000,101.725006,0.155366,0.550867,-0.063212,6.444838,0.005392,7.407920,25,2,4,19,58,2,199,8,3,32.866390,-117.254096,-37.235000,-2455689.345111,-4767178.223445,3441501.683076,14.386105,32.361881,74.027939,74.060486,41.259014,-179.876129,0.747357,0.563316,-0.281875,0.211374,133,32.866380,-117.254130,-29.287720,-2455695.510596,-4767183.356225,3441505.152339,4.821428
2624523570138,2630351256000,1422734300448611328,2630351256000,448620000,25,2,4,19,58,2,448,16,23.590000,101.729004,0.156058,0.550392,-0.063679,6.452096,0.018461,7.373921,25,2,4,19,58,2,399,8,3,32.866390,-117.254095,-37.382000,-2455689.235111,-4767178.133445,3441501.603076,14.387869,32.365658,73.999542,74.060081,41.257511,-179.874832,0.747365,0.563313,-0.281873,0.211358,133,32.866380,-117.254130,-29.283037,-2455695.512276,-4767183.359473,3441505.155307,4.823734
2624548859749,2630376257000,1422734300473612288,2630376257000,473621000,25,2,4,19,58,2,473,0,23.590000,101.742004,0.155372,0.551102,-0.063929,6.432426,-0.001529,7.398944,25,2,4,19,58,2,399,8,3,32.866390,-117.254095,-37.382000,-2455689.235111,-4767178.133445,3441501.603076,14.387869,32.365658,73.999542,74.058914,41.258171,-179.875610,0.747368,0.563306,-0.281875,0.211363,32901,32.866380,-117.254129,-29.377433,-2455695.450178,-4767183.305753,3441505.099292,4.811385
2624574148249,2630401257000,1422734300498612480,2630401257000,498621000,25,2,4,19,58,2,498,16,23.580000,101.725006,0.155141,0.550611,-0.064871,6.461249,0.023505,7.368839,25,2,4,19,58,2,399,8,3,32.866390,-117.254095,-37.382000,-2455689.235111,-4767178.133445,3441501.603076,14.387869,32.365658,73.999542,74.058151,41.257275,-179.875656,0.747374,0.563303,-0.281871,0.211357,32901,32.866380,-117.254129,-29.372828,-2455695.451887,-4767183.309018,3441505.102073,4.814234
2624598383193,2630426257000,1422734300523612160,2630426257000,523621000,25,2,4,19,58,2,523,16,23.590000,101.729004,0.155617,0.551573,-0.065601,6.465452,0.004414,7.333610,25,2,4,19,58,2,399,8,3,32.866390,-117.254095,-37.382000,-2455689.235111,-4767178.133445,3441501.603076,14.387869,32.365658,73.999542,74.057228,41.258457,-179.875427,0.747376,0.563294,-0.281881,0.211359,133,32.866380,-117.254129,-29.368148,-2455695.453573,-4767183.312387,3441505.104866,4.817088
2624623669582,2630451257000,1422734300548612352,2630451257000,548621000,25,2,4,19,58,2,548,16,23.570000,101.725006,0.155586,0.550399,-0.062016,6.478157,0.016606,7.366196,25,2,4,19,58,2,399,8,3,32.866390,-117.254095,-37.382000,-2455689.235111,-4767178.133445,3441501.603076,14.387869,32.365658,73.999542,74.055954,41.258461,-179.876068,0.747381,0.563287,-0.281880,0.211360,133,32.866380,-117.254129,-29.363538,-2455695.455190,-4767183.315647,3441505.107730,4.819948
2624648959953,2630476257000,1422734300573612544,2630476257000,573621000,25,2,4,19,58,2,573,0,23.590000,101.729004,0.156291,0.550150,-0.064388,6.459967,0.010824,7.370495,25,2,4,19,58,2,399,8,3,32.866390,-117.254095,-37.382000,-2455689.235111,-4767178.133445,3441501.603076,14.387869,32.365658,73.999542,74.055634,41.258739,-179.875656,0.747382,0.563283,-0.281885,0.211358,32901,32.866380,-117.254129,-29.358962,-2455695.456854,-4767183.318915,3441505.110487,4.822814
2624674251693,2630501257000,1422734300598612224,2630501257000,598621000,25,2,4,19,58,2,598,16,23.580000,101.725006,0.156295,0.551118,-0.063455,6.446078,0.040496,7.345425,25,2,4,19,58,2,399,8,3,32.866390,-117.254095,-37.382000,-2455689.235111,-4767178.133445,3441501.603076,14.387869,32.365658,73.999542,74.054420,41.259083,-179.876266,0.747387,0.563276,-0.281886,0.211361,32901,32.866380,-117.254129,-29.354275,-2455695.458585,-4767183.322259,3441505.113296,4.825686
2624698490767,2630526257000,1422734300623612416,2630526257000,623621000,25,2,4,19,58,2,623,16,23.580002,101.742004,0.155376,0.551339,-0.064409,6.450989,0.037481,7.389213,25,2,4,19,58,2,399,8,3,32.866390,-117.254095,-37.382000,-2455689.235111,-4767178.133445,3441501.603076,14.387869,32.365658,73.999542,74.054176,41.258739,-179.875275,0.747390,0.563273,-0.281889,0.211352,10373,32.866380,-117.254129,-29.349640,-2455695.460273,-4767183.325488,3441505.116197,4.828563
2624723792378,2630551257000,1422734300648612352,2630551257000,648621000,25,2,4,19,58,2,648,16,23.574999,101.737007,0.155610,0.550852,-0.065588,6.481075,0.002318,7.356393,25,2,4,19,58,2,599,8,3,32.866389,-117.254095,-37.443000,-2455689.185111,-4767178.113445,3441501.563076,14.388420,32.365688,73.938324,74.054329,41.259178,-179.874741,0.747389,0.563272,-0.281895,0.211351,10373,32.866379,-117.254128,-29.437187,-2455695.366266,-4767183.313450,3441505.038068,4.830869
2624749102341,2630576257000,1422734300673612288,2630576257000,673621000,25,2,4,19,58,2,673,0,23.574997,101.729004,0.154683,0.551085,-0.064879,6.458255,0.021603,7.351653,25,2,4,19,58,2,599,8,3,32.866389,-117.254095,-37.443000,-2455689.185111,-4767178.113445,3441501.563076,14.388420,32.365688,73.938324,74.054237,41.259495,-179.874420,0.747390,0.563270,-0.281898,0.211350,10373,32.866379,-117.254128,-29.432579,-2455695.367634,-4767183.317042,3441505.040648,4.814136
2624773353027,2630601257000,1422734300698612480,2630601257000,698621000,25,2,4,19,58,2,698,16,23.570000,101.725006,0.154910,0.551826,-0.062754,6.459578,0.020122,7.412557,25,2,4,19,58,2,599,8,3,32.866389,-117.254095,-37.443000,-2455689.185111,-4767178.113445,3441501.563076,14.388420,32.365688,73.938324,74.054169,41.259350,-179.874451,0.747390,0.563270,-0.281897,0.211350,49285,32.866379,-117.254128,-29.428043,-2455695.368992,-4767183.320519,3441505.043259,4.816964
2624798646156,2630626257000,1422734300723612416,2630626257000,723621000,25,2,4,19,58,2,723,16,23.580002,101.729004,0.155605,0.551348,-0.063696,6.451427,0.043962,7.382065,25,2,4,19,58,2,599,8,3,32.866389,-117.254095,-37.443000,-2455689.185111,-4767178.113445,3441501.563076,14.388420,32.365688,73.938324,74.054123,41.258888,-179.874954,0.747391,0.563272,-0.281892,0.211351,49285,32.866379,-117.254128,-29.423482,-2455695.370431,-4767183.324002,3441505.045851,4.819798
2624823935119,2630651257000,1422734300748612352,2630651257000,748621000,25,2,4,19,58,2,748,16,23.584999,101.729004,0.153993,0.551314,-0.065120,6.456070,0.015605,7.403846,25,2,4,19,58,2,599,8,3,32.866389,-117.254095,-37.443000,-2455689.185111,-4767178.113445,3441501.563076,14.388420,32.365688,73.938324,74.054588,41.258068,-179.874817,0.747391,0.563276,-0.281887,0.211347,28805,32.866379,-117.254128,-29.418928,-2455695.371850,-4767183.327414,3441505.048543,4.822637
2624848171082,2630676257000,1422734300773612288,2630676257000,773621000,25,2,4,19,58,2,773,0,23.574997,101.729004,0.155824,0.550637,-0.062733,6.493046,-0.005757,7.366842,25,2,4,19,58,2,599,8,3,32.866389,-117.254095,-37.443000,-2455689.185111,-4767178.113445,3441501.563076,14.388420,32.365688,73.938324,74.053764,41.257370,-179.875488,0.747395,0.563273,-0.281880,0.211346,28805,32.866379,-117.254128,-29.414319,-2455695.373240,-4767183.330985,3441505.051137,4.825481
2624873465045,2630701257000,1422734300798612480,2630701257000,798621000,25,2,4,19,58,2,798,16,23.570000,101.725006,0.155377,0.551583,-0.063938,6.422543,0.051388,7.384192,25,2,4,19,58,2,599,8,3,32.866389,-117.254095,-37.443000,-2455689.185111,-4767178.113445,3441501.563076,14.388420,32.365688,73.938324,74.053764,41.258263,-179.876297,0.747392,0.563274,-0.281882,0.211355,61573,32.866379,-117.254128,-29.409861,-2455695.374581,-4767183.334372,3441505.053741,4.828331
2624898757101,2630726257000,1422734300823612416,2630726257000,823621000,25,2,4,19,58,2,823,16,23.590000,101.729004,0.155604,0.551105,-0.063929,6.476781,0.002727,7.408920,25,2,4,19,58,2,599,8,3,32.866389,-117.254095,-37.443000,-2455689.185111,-4767178.113445,3441501.563076,14.388420,32.365688,73.938324,74.054253,41.258587,-179.874756,0.747391,0.563272,-0.281891,0.211348,61573,32.866379,-117.254128,-29.405304,-2455695.375954,-4767183.337860,3441505.056367,4.831188
2624925104971,2630751257000,1422734300848612352,2630751257000,848621000,25,2,4,19,58,2,848,16,23.590000,101.729004,0.156302,0.551596,-0.063938,6.468755,0.004698,7.374137,25,2,4,19,58,2,799,8,3,32.866389,-117.254094,-37.624000,-2455689.055111,-4767178.013445,3441501.453076,14.388443,32.366791,73.876419,74.054298,41.258915,-179.875580,0.747389,0.563274,-0.281889,0.211355,14469,32.866379,-117.254128,-29.515965,-2455695.287811,-4767183.275829,3441505.000274,4.833477
2624948304175,2630776258000,1422734300873613312,2630776258000,873622000,25,2,4,19,58,2,873,0,23.570000,101.737007,0.155592,0.550148,-0.063437,6.462004,0.022732,7.400280,25,2,4,19,58,2,799,8,3,32.866389,-117.254094,-37.624000,-2455689.055111,-4767178.013445,3441501.453076,14.388443,32.366791,73.876419,74.053894,41.258457,-179.874695,0.747394,0.563270,-0.281891,0.211346,14469,32.866379,-117.254128,-29.511515,-2455695.288852,-4767183.279342,3441505.002902,4.818330
2624974656712,2630801257000,1422734300898612224,2630801257000,898621000,25,2,4,19,58,2,898,16,23.580000,101.737007,0.156288,0.550642,-0.062971,6.431142,0.002747,7.366554,25,2,4,19,58,2,799,8,3,32.866389,-117.254094,-37.624000,-2455689.055111,-4767178.013445,3441501.453076,14.388443,32.366791,73.876419,74.052200,41.257153,-179.876450,0.747402,0.563266,-0.281877,0.211347,32901,32.866379,-117.254128,-29.507074,-2455695.290025,-4767183.282804,3441505.005490,4.821144
2624998894471,2630826257000,1422734300923612416,2630826257000,923621000,25,2,4,19,58,2,923,16,23.570000,101.725006,0.155831,0.550870,-0.063688,6.458132,0.002584,7.362462,25,2,4,19,58,2,799,8,3,32.866389,-117.254094,-37.624000,-2455689.055111,-4767178.013445,3441501.453076,14.388443,32.366791,73.876419,74.051331,41.256569,-179.877930,0.747405,0.563265,-0.281867,0.211352,32901,32.866379,-117.254128,-29.502564,-2455695.291177,-4767183.286321,3441505.008147,4.823965
2625024184693,2630851257000,1422734300948612352,2630851257000,948621000,25,2,4,19,58,2,948,16,23.574999,101.737007,0.155387,0.551812,-0.065367,6.450072,0.006449,7.347467,25,2,4,19,58,2,799,8,3,32.866389,-117.254094,-37.624000,-2455689.055111,-4767178.013445,3441501.453076,14.388443,32.366791,73.876419,74.050491,41.256893,-179.879440,0.747405,0.563263,-0.281864,0.211361,24709,32.866379,-117.254128,-29.498155,-2455695.292396,-4767183.289759,3441505.010676,4.826791
2625048425267,2630876257000,1422734300973612288,2630876257000,973621000,25,2,4,19,58,2,973,0,23.575001,101.742004,0.155589,0.549907,-0.063433,6.459027,0.024208,7.348872,25,2,4,19,58,2,799,8,3,32.866389,-117.254094,-37.624000,-2455689.055111,-4767178.013445,3441501.453076,14.388443,32.366791,73.876419,74.049683,41.258732,-179.880096,0.747404,0.563256,-0.281874,0.211372,24709,32.866379,-117.254128,-29.493637,-2455695.293533,-4767183.293368,3441505.013228,4.829622
2625074782545,2630901257000,1422734300998612480,2630901257000,998621000,25,2,4,19,58,2,998,16,23.590000,101.729004,0.155130,0.550384,-0.063204,6.475157,0.029456,7.378256,25,2,4,19,58,2,799,8,3,32.866389,-117.254094,-37.624000,-2455689.055111,-4767178.013445,3441501.453076,14.388443,32.366791,73.876419,74.049080,41.258087,-179.880081,0.747408,0.563253,-0.281871,0.211368,39045,32.866379,-117.254128,-29.489234,-2455695.294701,-4767183.296823,3441505.015760,4.832459
2625099046323,2630926257000,1422734301023612160,2630926257000,23622000,25,2,4,19,58,3,23,16,23.580000,101.737007,0.155134,0.550622,-0.063446,6.491857,0.010731,7.350606,25,2,4,19,58,2,799,8,3,32.866389,-117.254094,-37.624000,-2455689.055111,-4767178.013445,3441501.453076,14.388443,32.366791,73.876419,74.049530,41.257877,-179.880188,0.747406,0.563256,-0.281868,0.211368,39045,32.866379,-117.254128,-29.484886,-2455695.295797,-4767183.300182,3441505.018375,4.834733
2625124411749,2630951256000,1422734301048613376,2630951256000,48621000,25,2,4,19,58,3,48,16,23.590000,101.729004,0.155602,0.551107,-0.063692,6.451290,0.020471,7.325781,25,2,4,19,58,3,0,8,3,32.866390,-117.254094,-37.607000,-2455689.055111,-4767178.023445,3441501.473076,14.388276,32.368000,73.814781,74.048874,41.258823,-179.881332,0.747405,0.563253,-0.281870,0.211379,14469,32.866379,-117.254128,-29.480417,-2455695.296949,-4767183.303800,3441505.020815,4.837580
2625149730767,2630976257000,1422734301073614336,2630976257000,73622000,25,2,4,19,58,3,73,0,23.570000,101.750008,0.156308,0.551344,-0.065360,6.444903,0.003527,7.325022,25,2,4,19,58,3,0,8,3,32.866390,-117.254094,-37.607000,-2455689.055111,-4767178.023445,3441501.473076,14.388276,32.368000,73.814781,74.048286,41.258785,-179.881714,0.747407,0.563250,-0.281869,0.211380,14469,32.866380,-117.254127,-29.610481,-2455695.171861,-4767183.240024,3441504.957557,4.819577
2625173994749,2631001257000,1422734301098614272,2631001257000,98622000,25,2,4,19,58,3,98,16,23.580000,101.737007,0.155141,0.550855,-0.064400,6.455137,0.022854,7.368701,25,2,4,19,58,3,0,8,3,32.866390,-117.254094,-37.607000,-2455689.055111,-4767178.023445,3441501.473076,14.388276,32.368000,73.814781,74.047974,41.259762,-179.882339,0.747405,0.563248,-0.281873,0.211388,47237,32.866380,-117.254127,-29.606255,-2455695.172634,-4767183.243525,3441504.959979,4.822365
2625199309860,2631026257000,1422734301123614208,2631026257000,123622000,25,2,4,19,58,3,123,16,23.590000,101.742004,0.156276,0.549198,-0.063183,6.464673,0.014320,7.370355,25,2,4,19,58,3,0,8,3,32.866390,-117.254094,-37.607000,-2455689.055111,-4767178.023445,3441501.473076,14.388276,32.368000,73.814781,74.047348,41.260323,-179.882660,0.747406,0.563244,-0.281876,0.211391,47237,32.866380,-117.254127,-29.601904,-2455695.173438,-4767183.247133,3441504.962462,4.825158
2625224628397,2631051257000,1422734301148614144,2631051257000,148622000,25,2,4,19,58,3,148,16,23.570000,101.725006,0.155589,0.549421,-0.064137,6.471582,0.008521,7.368144,25,2,4,19,58,3,0,8,3,32.866390,-117.254094,-37.607000,-2455689.055111,-4767178.023445,3441501.473076,14.388276,32.368000,73.814781,74.045998,41.261784,-179.884125,0.747407,0.563236,-0.281881,0.211405,26757,32.866380,-117.254127,-29.597562,-2455695.174245,-4767183.250682,3441504.965008,4.827957
2625248945008,2631076257000,1422734301173614336,2631076257000,173622000,25,2,4,19,58,3,173,0,23.570000,101.725006,0.156760,0.551610,-0.062988,6.470806,0.013388,7.338172,25,2,4,19,58,3,0,8,3,32.866390,-117.254094,-37.607000,-2455689.055111,-4767178.023445,3441501.473076,14.388276,32.368000,73.814781,74.044037,41.262249,-179.885529,0.747413,0.563226,-0.281880,0.211411,26757,32.866380,-117.254127,-29.593234,-2455695.174993,-4767183.254250,3441504.967544,4.830761
2625274262674,2631101257000,1422734301198614272,2631101257000,198622000,25,2,4,19,58,3,198,16,23.580000,101.737007,0.155836,0.549890,-0.066046,6.484219,-0.012912,7.363463,25,2,4,19,58,3,0,8,3,32.866390,-117.254094,-37.607000,-2455689.055111,-4767178.023445,3441501.473076,14.388276,32.368000,73.814781,74.042221,41.263134,-179.887527,0.747416,0.563217,-0.281880,0.211424,57477,32.866380,-117.254127,-29.589033,-2455695.175700,-4767183.257710,3441504.970025,4.833570
2625299609286,2631126257000,1422734301223614208,2631126257000,223622000,25,2,4,19,58,3,223,16,23.570000,101.725006,0.154895,0.550142,-0.062962,6.472812,0.027567,7.353171,25,2,4,19,58,3,0,8,3,32.866390,-117.254094,-37.607000,-2455689.055111,-4767178.023445,3441501.473076,14.388276,32.368000,73.814781,74.039825,41.265732,-179.889587,0.747417,0.563202,-0.281891,0.211445,57477,32.866380,-117.254127,-29.584680,-2455695.176405,-4767183.261320,3441504.972578,4.836386
2625323986489,2631151256000,1422734301248613376,2631151256000,248621000,25,2,4,19,58,3,248,16,23.570000,101.737007,0.155829,0.550630,-0.063683,6.473403,0.015434,7.330207,25,2,4,19,58,3,199,8,3,32.866390,-117.254094,-37.748000,-2455688.965111,-4767177.933445,3441501.403076,14.387973,32.368885,73.753273,74.039101,41.266380,-179.890030,0.747418,0.563197,-0.281894,0.211449,57477,32.866380,-117.254127,-29.580440,-2455695.177172,-4767183.264861,3441504.974975,4.838642
2625349363785,2631176257000,1422734301273614080,2631176257000,273622000,25,2,4,19,58,3,273,0,23.584999,101.725006,0.155375,0.550854,-0.064875,6.428463,0.027380,7.349709,25,2,4,19,58,3,199,8,3,32.866390,-117.254094,-37.748000,-2455688.965111,-4767177.933445,3441501.403076,14.387973,32.368885,73.753273,74.038094,41.267963,-179.889709,0.747420,0.563186,-0.281908,0.211452,14469,32.866380,-117.254127,-29.665033,-2455695.134982,-4767183.205867,3441504.930171,4.827731
2625374753248,2631201257000,1422734301298614272,2631201257000,298622000,25,2,4,19,58,3,298,16,23.580002,101.729004,0.155834,0.551110,-0.063692,6.454979,-0.004052,7.370343,25,2,4,19,58,3,199,8,3,32.866390,-117.254094,-37.748000,-2455688.965111,-4767177.933445,3441501.403076,14.387973,32.368885,73.753273,74.038246,41.266380,-179.889618,0.747423,0.563190,-0.281898,0.211444,14469,32.866380,-117.254127,-29.660780,-2455695.135677,-4767183.209458,3441504.932575,4.830526
2625399081082,2631226257000,1422734301323614464,2631226257000,323622000,25,2,4,19,58,3,323,16,23.580002,101.729004,0.154909,0.551340,-0.063458,6.446409,0.028846,7.362645,25,2,4,19,58,3,199,8,3,32.866390,-117.254094,-37.748000,-2455688.965111,-4767177.933445,3441501.403076,14.387973,32.368885,73.753273,74.038155,41.265900,-179.890320,0.747424,0.563192,-0.281892,0.211446,36997,32.866380,-117.254127,-29.656595,-2455695.136345,-4767183.212929,3441504.935036,4.833327
2625424471822,2631251257000,1422734301348614144,2631251257000,348622000,25,2,4,19,58,3,348,16,23.570000,101.725006,0.155129,0.550386,-0.062966,6.457127,0.028501,7.348422,25,2,4,19,58,3,199,8,3,32.866390,-117.254094,-37.748000,-2455688.965111,-4767177.933445,3441501.403076,14.387973,32.368885,73.753273,74.038689,41.265579,-179.889755,0.747423,0.563195,-0.281891,0.211442,36997,32.866380,-117.254127,-29.652328,-2455695.137053,-4767183.216454,3441504.937547,4.836133
2625449926915,2631276257000,1422734301373614336,2631276257000,373622000,25,2,4,19,58,3,373,0,23.590000,101.729004,0.156052,0.549427,-0.064137,6.463944,0.012895,7.347663,25,2,4,19,58,3,199,8,3,32.866390,-117.254094,-37.748000,-2455688.965111,-4767177.933445,3441501.403076,14.387973,32.368885,73.753273,74.038551,41.264854,-179.891006,0.747423,0.563198,-0.281881,0.211446,18565,32.866380,-117.254127,-29.648103,-2455695.137656,-4767183.220041,3441504.939970,4.838944
2625474042489,2631301257000,1422734301398614272,2631301257000,398622000,25,2,4,19,58,3,398,16,23.570000,101.725006,0.156988,0.550399,-0.064392,6.447056,0.026596,7.361645,25,2,4,19,58,3,199,8,3,32.866390,-117.254094,-37.748000,-2455688.965111,-4767177.933445,3441501.403076,14.387973,32.368885,73.753273,74.039680,41.264439,-179.890091,0.747420,0.563204,-0.281880,0.211441,18565,32.866380,-117.254127,-29.643883,-2455695.138419,-4767183.223575,3441504.942342,4.841762
2625499513322,2631326257000,1422734301423614208,2631326257000,423622000,25,2,4,19,58,3,423,16,23.580002,101.729004,0.155351,0.550158,-0.061774,6.472051,-0.000981,7.388671,25,2,4,19,58,3,199,8,3,32.866390,-117.254094,-37.748000,-2455688.965111,-4767177.933445,3441501.403076,14.387973,32.368885,73.753273,74.038307,41.265110,-179.889877,0.747426,0.563194,-0.281888,0.211440,39045,32.866380,-117.254127,-29.639722,-2455695.139035,-4767183.227064,3441504.944774,4.844584
2625523891415,2631351257000,1422734301448614400,2631351257000,448622000,25,2,4,19,58,3,448,16,23.584999,101.742004,0.155825,0.550391,-0.063442,6.451779,-0.013156,7.403913,25,2,4,19,58,3,399,8,3,32.866390,-117.254094,-37.891000,-2455688.915111,-4767177.823445,3441501.323076,14.388384,32.372826,73.723091,74.038300,41.264629,-179.890640,0.747426,0.563196,-0.281881,0.211442,39045,32.866380,-117.254126,-29.729949,-2455695.089282,-4767183.163255,3441504.901572,4.846847
2625549291100,2631376257000,1422734301473614336,2631376257000,473622000,25,2,4,19,58,3,473,0,23.575001,101.742004,0.155142,0.551339,-0.063933,6.476445,-0.006787,7.429162,25,2,4,19,58,3,399,8,3,32.866390,-117.254094,-37.891000,-2455688.915111,-4767177.823445,3441501.323076,14.388384,32.372826,73.723091,74.037460,41.265041,-179.891541,0.747427,0.563192,-0.281881,0.211448,133,32.866380,-117.254126,-29.725749,-2455695.089901,-4767183.166789,3441504.904010,4.835331
2625574762359,2631401256000,1422734301498613248,2631401256000,498621000,25,2,4,19,58,3,498,16,23.570000,101.737007,0.156070,0.551106,-0.064642,6.456138,0.006099,7.351044,25,2,4,19,58,3,399,8,3,32.866390,-117.254094,-37.891000,-2455688.915111,-4767177.823445,3441501.323076,14.388384,32.372826,73.723091,74.037575,41.265041,-179.891663,0.747426,0.563193,-0.281880,0.211449,133,32.866380,-117.254126,-29.721621,-2455695.090469,-4767183.170295,3441504.906390,4.838130
2625599055637,2631426257000,1422734301523614208,2631426257000,523622000,25,2,4,19,58,3,523,16,23.570000,101.725006,0.156531,0.552089,-0.062759,6.456542,-0.003675,7.408493,25,2,4,19,58,3,399,8,3,32.866390,-117.254094,-37.891000,-2455688.915111,-4767177.823445,3441501.323076,14.388384,32.372826,73.723091,74.037651,41.264896,-179.890900,0.747428,0.563192,-0.281883,0.211444,32901,32.866380,-117.254126,-29.717483,-2455695.091067,-4767183.173794,3441504.908777,4.840935
2625624400471,2631451257000,1422734301548614144,2631451257000,548622000,25,2,4,19,58,3,548,16,23.590000,101.729004,0.155371,0.551346,-0.063459,6.466831,-0.008115,7.359872,25,2,4,19,58,3,399,8,3,32.866390,-117.254094,-37.891000,-2455688.915111,-4767177.823445,3441501.323076,14.388384,32.372826,73.723091,74.037537,41.263741,-179.891266,0.747430,0.563195,-0.281874,0.211440,32901,32.866380,-117.254126,-29.713286,-2455695.091659,-4767183.177285,3441504.911287,4.843746
2625649740748,2631476257000,1422734301573614336,2631476257000,573622000,25,2,4,19,58,3,573,0,23.570000,101.725006,0.156282,0.549919,-0.063196,6.442107,0.028743,7.339872,25,2,4,19,58,3,399,8,3,32.866390,-117.254094,-37.891000,-2455688.915111,-4767177.823445,3441501.323076,14.388384,32.372826,73.723091,74.036835,41.263935,-179.892548,0.747431,0.563193,-0.281870,0.211448,133,32.866380,-117.254126,-29.709198,-2455695.092224,-4767183.180793,3441504.913593,4.846562
2625674039674,2631501257000,1422734301598614272,2631501257000,598622000,25,2,4,19,58,3,598,16,23.580000,101.737007,0.155606,0.551588,-0.063700,6.455927,0.017113,7.372916,25,2,4,19,58,3,399,8,3,32.866390,-117.254094,-37.891000,-2455688.915111,-4767177.823445,3441501.323076,14.388384,32.372826,73.723091,74.035912,41.264313,-179.893478,0.747433,0.563188,-0.281870,0.211453,133,32.866380,-117.254126,-29.704976,-2455695.092778,-4767183.184329,3441504.916114,4.849384
2625699386859,2631526257000,1422734301623614208,2631526257000,623622000,25,2,4,19,58,3,623,16,23.580000,101.725006,0.155377,0.551094,-0.064880,6.449215,0.021148,7.386733,25,2,4,19,58,3,399,8,3,32.866390,-117.254094,-37.891000,-2455688.915111,-4767177.823445,3441501.323076,14.388384,32.372826,73.723091,74.035316,41.264847,-179.894730,0.747432,0.563186,-0.281868,0.211463,32901,32.866380,-117.254126,-29.700881,-2455695.093331,-4767183.187799,3441504.918495,4.852211
2625723695045,2631551257000,1422734301648614144,2631551257000,648622000,25,2,4,19,58,3,648,16,23.584999,101.729004,0.155377,0.551581,-0.064175,6.469231,0.021879,7.344456,25,2,4,19,58,3,599,8,3,32.866390,-117.254094,-37.996000,-2455688.875111,-4767177.733445,3441501.283076,14.388931,32.375748,73.667587,74.035179,41.263546,-179.892990,0.747439,0.563184,-0.281869,0.211445,32901,32.866380,-117.254126,-29.798298,-2455695.035535,-4767183.125215,3441504.866059,4.854477
2625749046785,2631576257000,1422734301673614336,2631576257000,673622000,25,2,4,19,58,3,673,0,23.570000,101.725006,0.156982,0.550163,-0.063913,6.467865,-0.008169,7.366286,25,2,4,19,58,3,599,8,3,32.866390,-117.254094,-37.996000,-2455688.875111,-4767177.733445,3441501.283076,14.388931,32.375748,73.667587,74.033798,41.263351,-179.893402,0.747446,0.563176,-0.281868,0.211443,133,32.866380,-117.254126,-29.794210,-2455695.036081,-4767183.128708,3441504.868400,4.842010
2625774396044,2631601257000,1422734301698614272,2631601257000,698622000,25,2,4,19,58,3,698,16,23.580000,101.737007,0.156305,0.551103,-0.065355,6.470562,0.003705,7.340454,25,2,4,19,58,3,599,8,3,32.866390,-117.254094,-37.996000,-2455688.875111,-4767177.733445,3441501.283076,14.388931,32.375748,73.667587,74.031639,41.264473,-179.895172,0.747450,0.563164,-0.281870,0.211455,133,32.866380,-117.254126,-29.790096,-2455695.036498,-4767183.132303,3441504.870740,4.844810
2625798693007,2631626257000,1422734301723614208,2631626257000,723622000,25,2,4,19,58,3,723,16,23.590000,101.729004,0.156301,0.551353,-0.064172,6.458983,0.008349,7.393167,25,2,4,19,58,3,599,8,3,32.866390,-117.254094,-37.996000,-2455688.875111,-4767177.733445,3441501.283076,14.388931,32.375748,73.667587,74.031067,41.265820,-179.895981,0.747448,0.563160,-0.281876,0.211465,32901,32.866380,-117.254126,-29.786159,-2455695.036921,-4767183.135704,3441504.873014,4.847615
2625824042359,2631651256000,1422734301748613376,2631651256000,748621000,25,2,4,19,58,3,748,16,23.574999,101.737007,0.155819,0.550887,-0.061550,6.467996,0.002284,7.361763,25,2,4,19,58,3,599,8,3,32.866390,-117.254094,-37.996000,-2455688.875111,-4767177.733445,3441501.283076,14.388931,32.375748,73.667587,74.030205,41.265980,-179.896530,0.747451,0.563155,-0.281876,0.211467,32901,32.866380,-117.254126,-29.782058,-2455695.037392,-4767183.139261,3441504.875343,4.850426
2625849399637,2631676257000,1422734301773614080,2631676257000,773622000,25,2,4,19,58,3,773,0,23.575001,101.742004,0.156518,0.550646,-0.062734,6.474026,0.031481,7.366053,25,2,4,19,58,3,599,8,3,32.866390,-117.254094,-37.996000,-2455688.875111,-4767177.733445,3441501.283076,14.388931,32.375748,73.667587,74.029625,41.266632,-179.897202,0.747451,0.563152,-0.281878,0.211473,133,32.866380,-117.254126,-29.777991,-2455695.037805,-4767183.142727,3441504.877776,4.853242
2625873705785,2631701257000,1422734301798614272,2631701257000,798622000,25,2,4,19,58,3,798,16,23.580000,101.725006,0.156291,0.550392,-0.064155,6.463086,0.009427,7.388597,25,2,4,19,58,3,599,8,3,32.866390,-117.254094,-37.996000,-2455688.875111,-4767177.733445,3441501.283076,14.388931,32.375748,73.667587,74.029617,41.266575,-179.897034,0.747452,0.563152,-0.281879,0.211472,133,32.866380,-117.254126,-29.773988,-2455695.038203,-4767183.146200,3441504.880091,4.856064
2625899053433,2631726257000,1422734301823614464,2631726257000,823622000,25,2,4,19,58,3,823,16,23.580000,101.725006,0.156066,0.551111,-0.063930,6.468995,-0.006157,7.372878,25,2,4,19,58,3,599,8,3,32.866390,-117.254094,-37.996000,-2455688.875111,-4767177.733445,3441501.283076,14.388931,32.375748,73.667587,74.029495,41.266323,-179.896774,0.747453,0.563151,-0.281879,0.211469,32901,32.866380,-117.254126,-29.769923,-2455695.038629,-4767183.149725,3441504.882430,4.858893
2625924403063,2631751256000,1422734301848613376,2631751256000,848621000,25,2,4,19,58,3,848,16,23.574999,101.725006,0.156056,0.550638,-0.062971,6.453154,0.035224,7.397945,25,2,4,19,58,3,799,8,3,32.866390,-117.254094,-38.093000,-2455688.845111,-4767177.663445,3441501.233076,14.389386,32.380966,73.612259,74.030243,41.265713,-179.896164,0.747452,0.563155,-0.281876,0.211464,32901,32.866380,-117.254126,-29.766021,-2455695.039013,-4767183.153189,3441504.884581,4.861159
2625948713859,2631776257000,1422734301873614336,2631776257000,873622000,25,2,4,19,58,3,873,0,23.584999,101.737007,0.156060,0.550388,-0.064154,6.467057,0.000218,7.385324,25,2,4,19,58,3,799,8,3,32.866390,-117.254094,-38.093000,-2455688.845111,-4767177.663445,3441501.233076,14.389386,32.380966,73.612259,74.029099,41.267303,-179.896698,0.747453,0.563146,-0.281886,0.211472,133,32.866379,-117.254125,-29.882279,-2455694.937264,-4767183.110013,3441504.801877,4.844334
2625974079878,2631801257000,1422734301898614272,2631801257000,898622000,25,2,4,19,58,3,898,16,23.580000,101.725006,0.155828,0.550143,-0.064388,6.453357,0.003109,7.358571,25,2,4,19,58,3,799,8,3,32.866390,-117.254094,-38.093000,-2455688.845111,-4767177.663445,3441501.233076,14.389386,32.380966,73.612259,74.028008,41.266430,-179.898773,0.747457,0.563146,-0.281872,0.211479,133,32.866379,-117.254125,-29.878417,-2455694.937277,-4767183.113611,3441504.804035,4.847112
2625999467637,2631826257000,1422734301923614208,2631826257000,923622000,25,2,4,19,58,3,923,16,23.580000,101.725006,0.155805,0.549202,-0.061758,6.463535,0.036352,7.374215,25,2,4,19,58,3,799,8,3,32.866390,-117.254094,-38.093000,-2455688.845111,-4767177.663445,3441501.233076,14.389386,32.380966,73.612259,74.026108,41.267063,-179.900635,0.747461,0.563137,-0.281871,0.211489,133,32.866379,-117.254125,-29.874485,-2455694.937408,-4767183.117247,3441504.806184,4.849896
2626023785730,2631851257000,1422734301948614400,2631851257000,948622000,25,2,4,19,58,3,948,16,23.570000,101.737007,0.156287,0.550641,-0.062971,6.472066,0.002140,7.353881,25,2,4,19,58,3,799,8,3,32.866390,-117.254094,-38.093000,-2455688.845111,-4767177.663445,3441501.233076,14.389386,32.380966,73.612259,74.026604,41.266617,-179.900543,0.747460,0.563141,-0.281867,0.211488,32901,32.866379,-117.254125,-29.870553,-2455694.937527,-4767183.120866,3441504.808366,4.852686
2626049170378,2631876257000,1422734301973614336,2631876257000,973622000,25,2,4,19,58,3,973,0,23.569998,101.725006,0.156071,0.550860,-0.065351,6.458319,0.007702,7.350768,25,2,4,19,58,3,799,8,3,32.866390,-117.254094,-38.093000,-2455688.845111,-4767177.663445,3441501.233076,14.389386,32.380966,73.612259,74.026230,41.266617,-179.899475,0.747464,0.563136,-0.281873,0.211480,32901,32.866379,-117.254125,-29.866632,-2455694.937677,-4767183.124453,3441504.810548,4.855482
2626073477841,2631901257000,1422734301998614272,2631901257000,998622000,25,2,4,19,58,3,998,16,23.590000,101.742004,0.155130,0.550625,-0.062971,6.480614,0.014424,7.405461,25,2,4,19,58,3,799,8,3,32.866390,-117.254094,-38.093000,-2455688.845111,-4767177.663445,3441501.233076,14.389386,32.380966,73.612259,74.026680,41.266720,-179.898819,0.747463,0.563137,-0.281876,0.211477,133,32.866379,-117.254125,-29.862600,-2455694.937777,-4767183.128169,3441504.812794,4.858283
2626098852859,2631926257000,1422734302023614208,2631926257000,23625000,25,2,4,19,58,4,23,16,23.580002,101.742004,0.155833,0.551596,-0.062988,6.476343,0.020523,7.361629,25,2,4,19,58,3,799,8,3,32.866390,-117.254094,-38.093000,-2455688.845111,-4767177.663445,3441501.233076,14.389386,32.380966,73.612259,74.027199,41.266556,-179.898392,0.747461,0.563139,-0.281876,0.211475,133,32.866379,-117.254125,-29.858658,-2455694.937893,-4767183.131794,3441504.814988,4.861089
2626124443433,2631951256000,1422734302048615168,2631951256000,48624000,25,2,4,19,58,4,48,16,23.570000,101.725006,0.155602,0.550863,-0.064163,6.483624,0.001237,7.362278,25,2,4,19,58,4,0,8,3,32.866390,-117.254094,-38.201000,-2455688.745111,-4767177.583445,3441501.203076,14.390749,32.389259,73.588203,74.027115,41.267128,-179.898148,0.747461,0.563137,-0.281882,0.211476,32901,32.866380,-117.254124,-29.995823,-2455694.809784,-4767183.039063,3441504.780626,4.863338
2626148776470,2631976257000,1422734302073616384,2631976257000,73625000,25,2,4,19,58,4,73,0,23.570000,101.725006,0.155832,0.550624,-0.064396,6.463670,0.003262,7.369777,25,2,4,19,58,4,0,8,3,32.866390,-117.254094,-38.201000,-2455688.745111,-4767177.583445,3441501.203076,14.390749,32.389259,73.588203,74.026802,41.268753,-179.897919,0.747459,0.563132,-0.281894,0.211482,32901,32.866380,-117.254124,-29.992115,-2455694.809284,-4767183.042623,3441504.782915,4.844512
2626174155322,2632001257000,1422734302098616064,2632001257000,98625000,25,2,4,19,58,4,98,16,23.590000,101.729004,0.155359,0.549172,-0.064845,6.471802,0.010136,7.356540,25,2,4,19,58,4,0,8,3,32.866390,-117.254094,-38.201000,-2455688.745111,-4767177.583445,3441501.203076,14.390749,32.389259,73.588203,74.025856,41.269165,-179.899216,0.747460,0.563128,-0.281892,0.211490,133,32.866380,-117.254124,-29.988314,-2455694.808990,-4767183.046188,3441504.785222,4.847260
2626198487878,2632026257000,1422734302123616256,2632026257000,123625000,25,2,4,19,58,4,123,16,23.570000,101.737007,0.155141,0.551097,-0.064167,6.455837,0.011040,7.380498,25,2,4,19,58,4,0,8,3,32.866390,-117.254094,-38.201000,-2455688.745111,-4767177.583445,3441501.203076,14.390749,32.389259,73.588203,74.024277,41.270153,-179.900024,0.747464,0.563118,-0.281897,0.211496,133,32.866380,-117.254124,-29.984507,-2455694.808738,-4767183.049757,3441504.787507,4.850014
2626223860433,2632051257000,1422734302148616192,2632051257000,148625000,25,2,4,19,58,4,148,16,23.570000,101.725006,0.155591,0.549661,-0.064141,6.457222,-0.011483,7.383273,25,2,4,19,58,4,0,8,3,32.866390,-117.254094,-38.201000,-2455688.745111,-4767177.583445,3441501.203076,14.390749,32.389259,73.588203,74.025070,41.269276,-179.899597,0.747463,0.563123,-0.281892,0.211491,32901,32.866380,-117.254124,-29.980749,-2455694.808395,-4767183.053353,3441504.789727,4.852773
2626249236526,2632076259000,1422734302173618176,2632076259000,173627000,25,2,4,19,58,4,173,0,23.584999,101.725006,0.156982,0.550407,-0.063442,6.472135,0.021377,7.375321,25,2,4,19,58,4,0,8,3,32.866390,-117.254094,-38.201000,-2455688.745111,-4767177.583445,3441501.203076,14.390749,32.389259,73.588203,74.024422,41.269375,-179.900131,0.747465,0.563120,-0.281891,0.211493,32901,32.866380,-117.254124,-29.976967,-2455694.808152,-4767183.056935,3441504.791939,4.855537
2626273551785,2632101257000,1422734302198616320,2632101257000,198625000,25,2,4,19,58,4,198,16,23.590000,101.729004,0.156036,0.548719,-0.062462,6.471339,-0.000120,7.373308,25,2,4,19,58,4,0,8,3,32.866390,-117.254094,-38.201000,-2455688.745111,-4767177.583445,3441501.203076,14.390749,32.389259,73.588203,74.024193,41.270210,-179.900635,0.747463,0.563118,-0.281895,0.211500,133,32.866380,-117.254124,-29.973135,-2455694.807802,-4767183.060579,3441504.794233,4.858306
2626298959340,2632126257000,1422734302223616000,2632126257000,223625000,25,2,4,19,58,4,223,16,23.580002,101.742004,0.155370,0.551348,-0.063221,6.459319,0.016793,7.362802,25,2,4,19,58,4,0,8,3,32.866390,-117.254094,-38.201000,-2455688.745111,-4767177.583445,3441501.203076,14.390749,32.389259,73.588203,74.023575,41.269371,-179.901535,0.747466,0.563118,-0.281886,0.211500,133,32.866380,-117.254124,-29.969367,-2455694.807475,-4767183.064146,3441504.796502,4.861082
2626324346452,2632151257000,1422734302248616192,2632151257000,248625000,25,2,4,19,58,4,248,16,23.584999,101.729004,0.154917,0.551815,-0.064179,6.456730,0.008917,7.363564,25,2,4,19,58,4,199,8,3,32.866390,-117.254093,-38.361000,-2455688.635111,-4767177.473445,3441501.143076,14.392973,32.396709,73.567139,74.023346,41.269520,-179.902069,0.747466,0.563118,-0.281885,0.211504,32901,32.866380,-117.254124,-30.090484,-2455694.711192,-4767182.988713,3441504.745352,4.863306
