systemTimeStamp,timeStartup,timeGps,timeSyncIn,timeGpsPps,utcYear,utcMonth,utcDay,utcHour,utcMinute,utcSecond,utcFracsec,imuStatus,temperature,pressure,magX,magY,magZ,accelX,accelY,accelZ,gps1UtcYear,gps1UtcMonth,gps1UtcDay,gps1UtcHour,gps1UtcMinute,gps1UtcSecond,gps1UtcFracsec,gnss1NumSats,gnss1Fix,gnss1PosLat,gnss1PosLon,gnss1PosAlt,gnss1PosEcefX,gnss1PosEcefY,gnss1PosEcefY,gnss1PosUncertaintyN,gnss1PosUncertaintyE,gnss1PosUncertaintyD,yaw,pitch,roll,quatX,quatY,quatZ,quatW,insStatus,lat,lon,alt,posEcefX,posEcefY,posEcefZ,posU
3247376788730,3253201257000,1422734923299780352,3253201257000,299789000,25,2,4,20,8,25,299,16,23.400000,101.721008,0.156470,0.550387,-0.063443,6.445498,0.040831,7.371253,25,2,4,20,8,25,199,9,3,32.866373,-117.254111,-37.655000,-2455690.885111,-4767178.153445,3441499.903076,13.495866,33.519386,45.717716,74.117416,41.265476,-179.783997,0.747231,0.563448,-0.282265,0.210946,51333,32.866373,-117.254097,-39.642546,-2455689.048806,-4767177.375063,3441498.881109,5.872641
3247400526192,3253226257000,1422734923324780544,3253226257000,324789000,25,2,4,20,8,25,324,16,23.389997,101.729004,0.155308,0.549406,-0.063900,6.443387,0.029297,7.378150,25,2,4,20,8,25,199,9,3,32.866373,-117.254111,-37.655000,-2455690.885111,-4767178.153445,3441499.903076,13.495866,33.519386,45.717716,74.116570,41.265869,-179.783997,0.747234,0.563442,-0.282270,0.210945,51333,32.866373,-117.254097,-39.640919,-2455689.044851,-4767177.378041,3441498.882814,5.874681
3247425898155,3253251257000,1422734923349780224,3253251257000,349789000,25,2,4,20,8,25,349,16,23.384998,101.717003,0.155545,0.550619,-0.062972,6.467626,0.020888,7.354701,25,2,4,20,8,25,199,9,3,32.866373,-117.254111,-37.655000,-2455690.885111,-4767178.153445,3441499.903076,13.495866,33.519386,45.717716,74.116974,41.265564,-179.784012,0.747233,0.563445,-0.282267,0.210945,14469,32.866373,-117.254097,-39.639339,-2455689.041067,-4767177.380890,3441498.884488,5.876727
3247450155804,3253276257000,1422734923374780416,3253276257000,374789000,25,2,4,20,8,25,374,0,23.400002,101.733002,0.155762,0.548451,-0.063883,6.471840,0.041526,7.345746,25,2,4,20,8,25,199,9,3,32.866373,-117.254111,-37.655000,-2455690.885111,-4767178.153445,3441499.903076,13.495866,33.519386,45.717716,74.116379,41.266037,-179.784973,0.747233,0.563443,-0.282266,0.210952,14469,32.866373,-117.254097,-39.637759,-2455689.037154,-4767177.383835,3441498.886120,5.878778
3247475468933,3253301261000,1422734923399784448,3253301261000,399793000,25,2,4,20,8,25,399,16,23.379999,101.717003,0.155315,0.550370,-0.063680,6.467595,0.042608,7.359753,25,2,4,20,8,25,199,9,3,32.866373,-117.254111,-37.655000,-2455690.885111,-4767178.153445,3441499.903076,13.495866,33.519386,45.717716,74.115479,41.265339,-179.785172,0.747239,0.563439,-0.282262,0.210948,41093,32.866373,-117.254097,-39.636138,-2455689.033311,-4767177.386790,3441498.887765,5.880833
3247500790933,3253326257000,1422734923424780288,3253326257000,424789000,25,2,4,20,8,25,424,16,23.379999,101.729004,0.154873,0.552038,-0.064659,6.456913,0.025075,7.383111,25,2,4,20,8,25,199,9,3,32.866373,-117.254111,-37.655000,-2455690.885111,-4767178.153445,3441499.903076,13.495866,33.519386,45.717716,74.115471,41.264114,-179.784744,0.747243,0.563440,-0.282256,0.210939,41093,32.866373,-117.254097,-39.634542,-2455689.029392,-4767177.389719,3441498.889453,5.882893
3247525064785,3253351257000,1422734923449780480,3253351257000,449789000,25,2,4,20,8,25,449,16,23.379999,101.729004,0.155086,0.550607,-0.063684,6.445897,0.057051,7.286292,25,2,4,20,8,25,399,9,3,32.866373,-117.254110,-37.702000,-2455690.775111,-4767178.153445,3441499.903076,13.501074,33.525913,45.600494,74.113724,41.263607,-179.786942,0.747248,0.563435,-0.282246,0.210946,41093,32.866373,-117.254097,-39.621331,-2455689.018019,-4767177.402859,3441498.903780,5.884545
3247550385100,3253376257000,1422734923474780416,3253376257000,474789000,25,2,4,20,8,25,474,0,23.379997,101.717003,0.156245,0.550621,-0.063922,6.459880,0.000084,7.346337,25,2,4,20,8,25,399,9,3,32.866373,-117.254110,-37.702000,-2455690.775111,-4767178.153445,3441499.903076,13.501074,33.525913,45.600494,74.112328,41.262592,-179.788361,0.747255,0.563431,-0.282235,0.210947,133,32.866373,-117.254097,-39.619638,-2455689.013989,-4767177.405901,3441498.905569,5.871783
3247575734452,3253401257000,1422734923499780352,3253401257000,499789000,25,2,4,20,8,25,499,16,23.379999,101.717003,0.155083,0.550368,-0.063442,6.459546,-0.012951,7.373384,25,2,4,20,8,25,399,9,3,32.866373,-117.254110,-37.702000,-2455690.775111,-4767178.153445,3441499.903076,13.501074,33.525913,45.600494,74.110291,41.263290,-179.790588,0.747259,0.563422,-0.282232,0.210960,133,32.866373,-117.254097,-39.618025,-2455689.010010,-4767177.408895,3441498.907241,5.873841
3247600007266,3253426257000,1422734923524780288,3253426257000,524789000,25,2,4,20,8,25,524,16,23.379999,101.717003,0.154854,0.550361,-0.063917,6.438429,0.017437,7.333011,25,2,4,20,8,25,399,9,3,32.866373,-117.254110,-37.702000,-2455690.775111,-4767178.153445,3441499.903076,13.501074,33.525913,45.600494,74.109787,41.264313,-179.791428,0.747258,0.563419,-0.282235,0.210970,32901,32.866373,-117.254097,-39.616408,-2455689.005962,-4767177.411899,3441498.908958,5.875904
3247625331729,3253451257000,1422734923549780480,3253451257000,549789000,25,2,4,20,8,25,549,16,23.395000,101.733002,0.157414,0.551592,-0.064652,6.466636,0.035032,7.367731,25,2,4,20,8,25,399,9,3,32.866373,-117.254110,-37.702000,-2455690.775111,-4767178.153445,3441499.903076,13.501074,33.525913,45.600494,74.109993,41.263577,-179.790024,0.747261,0.563418,-0.282237,0.210957,32901,32.866373,-117.254097,-39.614818,-2455689.002007,-4767177.414825,3441498.910664,5.877972
3247650645359,3253476257000,1422734923574780416,3253476257000,574789000,25,2,4,20,8,25,574,0,23.379999,101.717003,0.156471,0.550143,-0.063914,6.445362,0.077323,7.362240,25,2,4,20,8,25,399,9,3,32.866373,-117.254110,-37.702000,-2455690.775111,-4767178.153445,3441499.903076,13.501074,33.525913,45.600494,74.107979,41.264210,-179.792313,0.747265,0.563409,-0.282234,0.210970,16517,32.866373,-117.254097,-39.613211,-2455688.997984,-4767177.417797,3441498.912389,5.880044
3247674920470,3253501256000,1422734923599779328,3253501256000,599788000,25,2,4,20,8,25,599,16,23.389997,101.717003,0.155561,0.552057,-0.063472,6.470091,0.014175,7.385696,25,2,4,20,8,25,399,9,3,32.866373,-117.254110,-37.702000,-2455690.775111,-4767178.153445,3441499.903076,13.501074,33.525913,45.600494,74.104424,41.263203,-179.795135,0.747280,0.563395,-0.282220,0.210975,16517,32.866373,-117.254097,-39.611623,-2455688.993910,-4767177.420758,3441498.914127,5.882122
3247700220303,3253526257000,1422734923624780544,3253526257000,624789000,25,2,4,20,8,25,624,16,23.400000,101.733002,0.155090,0.551331,-0.063222,6.477526,-0.022116,7.394729,25,2,4,20,8,25,399,9,3,32.866373,-117.254110,-37.702000,-2455690.775111,-4767178.153445,3441499.903076,13.501074,33.525913,45.600494,74.099899,41.262596,-179.802246,0.747291,0.563384,-0.282189,0.211007,57477,32.866373,-117.254097,-39.610012,-2455688.989872,-4767177.423725,3441498.915876,5.884205
3247725519192,3253551256000,1422734923649779200,3253551256000,649788000,25,2,4,20,8,25,649,16,23.379999,101.729004,0.155342,0.552523,-0.064906,6.468087,-0.005979,7.342683,25,2,4,20,8,25,599,9,3,32.866373,-117.254109,-37.797000,-2455690.635111,-4767178.123445,3441499.873076,13.506372,33.534073,45.486126,74.098122,41.263630,-179.807281,0.747288,0.563383,-0.282174,0.211041,57477,32.866373,-117.254097,-39.608469,-2455688.985741,-4767177.426655,3441498.917616,5.885875
3247750822748,3253576257000,1422734923674780416,3253576257000,674789000,25,2,4,20,8,25,674,0,23.385000,101.721008,0.155998,0.549908,-0.062484,6.441331,0.038553,7.334643,25,2,4,20,8,25,599,9,3,32.866373,-117.254109,-37.797000,-2455690.635111,-4767178.123445,3441499.873076,13.506372,33.534073,45.486126,74.096970,41.266281,-179.809555,0.747283,0.563376,-0.282183,0.211066,12421,32.866373,-117.254096,-39.611590,-2455688.980558,-4767177.430564,3441498.910160,5.870349
3247775067155,3253601257000,1422734923699780352,3253601257000,699789000,25,2,4,20,8,25,699,16,23.390001,101.721008,0.155772,0.550385,-0.062492,6.458325,0.072361,7.375426,25,2,4,20,8,25,599,9,3,32.866373,-117.254109,-37.797000,-2455690.635111,-4767178.123445,3441499.873076,13.506372,33.534073,45.486126,74.098419,41.265102,-179.807602,0.747282,0.563383,-0.282182,0.211051,12421,32.866373,-117.254096,-39.610016,-2455688.976471,-4767177.433579,3441498.911808,5.872414
3247800365470,3253626256000,1422734923724779264,3253626256000,724788000,25,2,4,20,8,25,724,16,23.389997,101.729004,0.153704,0.550578,-0.064871,6.439745,0.028870,7.385129,25,2,4,20,8,25,599,9,3,32.866373,-117.254109,-37.797000,-2455690.635111,-4767178.123445,3441499.873076,13.506372,33.534073,45.486126,74.098259,41.263603,-179.808197,0.747285,0.563386,-0.282169,0.211047,49285,32.866373,-117.254096,-39.608429,-2455688.972346,-4767177.436595,3441498.913506,5.874484
3247825661414,3253651257000,1422734923749780480,3253651257000,749789000,25,2,4,20,8,25,749,16,23.379999,101.717003,0.155790,0.551333,-0.064172,6.480850,-0.007621,7.366913,25,2,4,20,8,25,599,9,3,32.866373,-117.254109,-37.797000,-2455690.635111,-4767178.123445,3441499.873076,13.506372,33.534073,45.486126,74.096527,41.260086,-179.810333,0.747299,0.563387,-0.282139,0.211039,49285,32.866373,-117.254096,-39.606827,-2455688.968236,-4767177.439583,3441498.915261,5.876559
3247849905618,3253676257000,1422734923774780160,3253676257000,774789000,25,2,4,20,8,25,774,0,23.384998,101.721008,0.156003,0.550144,-0.062963,6.446576,0.003068,7.352507,25,2,4,20,8,25,599,9,3,32.866373,-117.254109,-37.797000,-2455690.635111,-4767178.123445,3441499.873076,13.506372,33.534073,45.486126,74.090904,41.261177,-179.817245,0.747311,0.563365,-0.282123,0.211076,12421,32.866373,-117.254096,-39.605225,-2455688.964141,-4767177.442620,3441498.916936,5.878639
3247875200989,3253701257000,1422734923799780352,3253701257000,799789000,25,2,4,20,8,25,799,16,23.390001,101.733002,0.156239,0.550384,-0.063443,6.467186,0.020740,7.368087,25,2,4,20,8,25,599,9,3,32.866373,-117.254109,-37.797000,-2455690.635111,-4767178.123445,3441499.873076,13.506372,33.534073,45.486126,74.087540,41.260658,-179.822540,0.747319,0.563357,-0.282100,0.211100,12421,32.866373,-117.254096,-39.603628,-2455688.959972,-4767177.445623,3441498.918701,5.880724
3247900496470,3253726257000,1422734923824780544,3253726257000,824789000,25,2,4,20,8,25,824,16,23.379999,101.729004,0.155773,0.550139,-0.063201,6.458059,0.026622,7.330367,25,2,4,20,8,25,599,9,3,32.866373,-117.254109,-37.797000,-2455690.635111,-4767178.123445,3441499.873076,13.506372,33.534073,45.486126,74.085243,41.261185,-179.823837,0.747326,0.563344,-0.282101,0.211105,41093,32.866373,-117.254096,-39.602089,-2455688.955785,-4767177.448640,3441498.920355,5.882815
3247924751637,3253751256000,1422734923849779456,3253751256000,849788000,25,2,4,20,8,25,849,16,23.384998,101.717003,0.156703,0.550388,-0.063680,6.453142,0.022281,7.354479,25,2,4,20,8,25,799,9,3,32.866374,-117.254107,-37.858000,-2455690.485111,-4767178.123445,3441499.853076,13.512165,33.545982,45.375553,74.084412,41.260277,-179.824982,0.747331,0.563344,-0.282091,0.211106,41093,32.866373,-117.254096,-39.600572,-2455688.951492,-4767177.451637,3441498.922069,5.884491
3247950068618,3253776257000,1422734923874780416,3253776257000,874789000,25,2,4,20,8,25,874,0,23.379999,101.729004,0.155775,0.550380,-0.063205,6.454071,-0.001657,7.377720,25,2,4,20,8,25,799,9,3,32.866374,-117.254107,-37.858000,-2455690.485111,-4767178.123445,3441499.853076,13.512165,33.545982,45.375553,74.082321,41.259945,-179.826874,0.747338,0.563335,-0.282083,0.211112,133,32.866373,-117.254096,-39.587695,-2455688.942503,-4767177.463815,3441498.935412,5.871501
3247975380174,3253801257000,1422734923899780352,3253801257000,899789000,25,2,4,20,8,25,899,16,23.389997,101.717003,0.155086,0.550362,-0.064155,6.456698,-0.001864,7.347883,25,2,4,20,8,25,799,9,3,32.866374,-117.254107,-37.858000,-2455690.485111,-4767178.123445,3441499.853076,13.512165,33.545982,45.375553,74.078125,41.259415,-179.832794,0.747349,0.563323,-0.282058,0.211137,133,32.866373,-117.254096,-39.586004,-2455688.938208,-4767177.466979,3441498.937218,5.874007
3248000689581,3253826257000,1422734923924780288,3253826257000,924789000,25,2,4,20,8,25,924,16,23.390001,101.721008,0.154620,0.550360,-0.063679,6.479264,0.004397,7.367223,25,2,4,20,8,25,799,9,3,32.866374,-117.254107,-37.858000,-2455690.485111,-4767178.123445,3441499.853076,13.512165,33.545982,45.375553,74.074409,41.261028,-179.837433,0.747355,0.563308,-0.282053,0.211166,32901,32.866373,-117.254096,-39.584416,-2455688.933981,-4767177.470030,3441498.938942,5.876101
3248024936081,3253851257000,1422734923949780480,3253851257000,949789000,25,2,4,20,8,25,949,16,23.395000,101.733002,0.155088,0.551333,-0.062984,6.456809,0.004420,7.359563,25,2,4,20,8,25,799,9,3,32.866374,-117.254107,-37.858000,-2455690.485111,-4767178.123445,3441499.853076,13.512165,33.545982,45.375553,74.071220,41.261478,-179.841339,0.747362,0.563295,-0.282043,0.211186,32901,32.866373,-117.254096,-39.582798,-2455688.929663,-4767177.473111,3441498.940746,5.878200
3248050236266,3253876257000,1422734923974780416,3253876257000,974789000,25,2,4,20,8,25,974,0,23.379999,101.717003,0.155997,0.549909,-0.062246,6.432530,0.015457,7.372515,25,2,4,20,8,25,799,9,3,32.866374,-117.254107,-37.858000,-2455690.485111,-4767178.123445,3441499.853076,13.512165,33.545982,45.375553,74.070488,41.262749,-179.841705,0.747362,0.563289,-0.282050,0.211193,8325,32.866373,-117.254096,-39.581182,-2455688.925462,-4767177.476224,3441498.942418,5.880304
3248075535914,3253901262000,1422734923999785472,3253901262000,999794000,25,2,4,20,8,25,999,16,23.390001,101.721008,0.156022,0.551821,-0.063706,6.466712,0.033884,7.353639,25,2,4,20,8,25,799,9,3,32.866374,-117.254107,-37.858000,-2455690.485111,-4767178.123445,3441499.853076,13.512165,33.545982,45.375553,74.070343,41.261780,-179.841949,0.747365,0.563291,-0.282043,0.211189,8325,32.866373,-117.254096,-39.579638,-2455688.921124,-4767177.479251,3441498.944173,5.882414
3248099804118,3253926257000,1422734924024780288,3253926257000,24791000,25,2,4,20,8,26,24,16,23.379999,101.717003,0.155574,0.552524,-0.065143,6.476922,0.010218,7.388238,25,2,4,20,8,25,799,9,3,32.866374,-117.254107,-37.858000,-2455690.485111,-4767178.123445,3441499.853076,13.512165,33.545982,45.375553,74.068848,41.261211,-179.843048,0.747372,0.563285,-0.282037,0.211190,8325,32.866373,-117.254096,-39.578026,-2455688.916786,-4767177.482341,3441498.945966,5.884529
3248125116525,3253951257000,1422734924049782272,3253951257000,49791000,25,2,4,20,8,26,49,16,23.379999,101.717003,0.156016,0.550856,-0.064163,6.455824,0.012088,7.377227,25,2,4,20,8,26,0,9,3,32.866374,-117.254107,-37.782000,-2455690.485111,-4767178.183445,3441499.923076,13.518646,33.560421,45.267555,74.066048,41.258945,-179.846924,0.747384,0.563280,-0.282008,0.211197,61573,32.866373,-117.254095,-39.564702,-2455688.904877,-4767177.497957,3441498.957473,5.886224
3248150425914,3253976257000,1422734924074782464,3253976257000,74791000,25,2,4,20,8,26,74,0,23.400000,101.733002,0.156028,0.553030,-0.062776,6.460693,0.034591,7.353082,25,2,4,20,8,26,0,9,3,32.866374,-117.254107,-37.782000,-2455690.485111,-4767178.183445,3441499.923076,13.518646,33.560421,45.267555,74.063400,41.257626,-179.849869,0.747395,0.563273,-0.281990,0.211204,61573,32.866373,-117.254095,-39.563037,-2455688.900457,-4767177.501139,3441498.959296,5.873549
3248174677988,3254001257000,1422734924099782144,3254001257000,99791000,25,2,4,20,8,26,99,16,23.390001,101.733002,0.155563,0.551809,-0.064418,6.471839,0.030665,7.341773,25,2,4,20,8,26,0,9,3,32.866374,-117.254107,-37.782000,-2455690.485111,-4767178.183445,3441499.923076,13.518646,33.560421,45.267555,74.062454,41.259289,-179.850830,0.747393,0.563266,-0.281998,0.211216,8325,32.866373,-117.254095,-39.561378,-2455688.896138,-4767177.504279,3441498.961094,5.875662
3248199974766,3254026257000,1422734924124782336,3254026257000,124791000,25,2,4,20,8,26,124,16,23.379999,101.729004,0.155324,0.551573,-0.063463,6.459705,0.031507,7.366864,25,2,4,20,8,26,0,9,3,32.866374,-117.254107,-37.782000,-2455690.485111,-4767178.183445,3441499.923076,13.518646,33.560421,45.267555,74.063728,41.259132,-179.848877,0.747391,0.563270,-0.282004,0.211205,8325,32.866373,-117.254095,-39.559772,-2455688.891618,-4767177.507457,3441498.962885,5.877780
3248225279062,3254051256000,1422734924149781248,3254051256000,149790000,25,2,4,20,8,26,149,16,23.395000,101.721008,0.155313,0.551346,-0.061796,6.435883,0.049394,7.351495,25,2,4,20,8,26,0,9,3,32.866374,-117.254107,-37.782000,-2455690.485111,-4767178.183445,3441499.923076,13.518646,33.560421,45.267555,74.063118,41.258881,-179.849106,0.747394,0.563267,-0.282002,0.211204,45189,32.866373,-117.254095,-39.558212,-2455688.887245,-4767177.510525,3441498.964637,5.879903
3248250584322,3254076257000,1422734924174782208,3254076257000,174791000,25,2,4,20,8,26,174,0,23.395000,101.729004,0.156021,0.552067,-0.062997,6.431431,0.036051,7.387186,25,2,4,20,8,26,0,9,3,32.866374,-117.254107,-37.782000,-2455690.485111,-4767178.183445,3441499.923076,13.518646,33.560421,45.267555,74.061119,41.257145,-179.849762,0.747407,0.563258,-0.281992,0.211195,45189,32.866373,-117.254095,-39.556587,-2455688.882849,-4767177.513649,3441498.966449,5.882032
3248274825581,3254101257000,1422734924199782400,3254101257000,199791000,25,2,4,20,8,26,199,16,23.390001,101.721008,0.155781,0.551589,-0.062276,6.465868,0.019921,7.384764,25,2,4,20,8,26,0,9,3,32.866374,-117.254107,-37.782000,-2455690.485111,-4767178.183445,3441499.923076,13.518646,33.560421,45.267555,74.058029,41.253151,-179.853241,0.747426,0.563254,-0.281954,0.211190,12421,32.866373,-117.254095,-39.555017,-2455688.878364,-4767177.516728,3441498.968284,5.884165
3248300123840,3254126257000,1422734924224782336,3254126257000,224791000,25,2,4,20,8,26,224,16,23.389997,101.729004,0.155787,0.550607,-0.064872,6.460345,0.008420,7.373290,25,2,4,20,8,26,0,9,3,32.866374,-117.254107,-37.782000,-2455690.485111,-4767178.183445,3441499.923076,13.518646,33.560421,45.267555,74.053619,41.247452,-179.858917,0.747451,0.563250,-0.281897,0.211188,12421,32.866373,-117.254095,-39.553411,-2455688.873932,-4767177.519841,3441498.970100,5.886304
3248325416599,3254151256000,1422734924249781248,3254151256000,249790000,25,2,4,20,8,26,249,16,23.395000,101.733002,0.155555,0.551334,-0.063697,6.482387,-0.005874,7.372918,25,2,4,20,8,26,199,9,3,32.866374,-117.254107,-37.794000,-2455690.465111,-4767178.183445,3441499.923076,13.524935,33.567039,45.157669,74.048752,41.246883,-179.864700,0.747466,0.563234,-0.281874,0.211211,41093,32.866373,-117.254095,-39.551871,-2455688.869497,-4767177.522879,3441498.971902,5.888019
3248349664618,3254176257000,1422734924274782208,3254176257000,274791000,25,2,4,20,8,26,274,0,23.379997,101.717003,0.155991,0.549431,-0.062000,6.479403,0.007995,7.390121,25,2,4,20,8,26,199,9,3,32.866374,-117.254107,-37.794000,-2455690.465111,-4767178.183445,3441499.923076,13.524935,33.567039,45.157669,74.043190,41.247913,-179.869843,0.747481,0.563208,-0.281866,0.211236,41093,32.866373,-117.254095,-39.605608,-2455688.859191,-4767177.500904,3441498.910421,5.866366
3248374958007,3254201257000,1422734924299782400,3254201257000,299791000,25,2,4,20,8,26,299,16,23.379999,101.729004,0.156221,0.549192,-0.062234,6.460277,0.029285,7.379553,25,2,4,20,8,26,199,9,3,32.866374,-117.254107,-37.794000,-2455690.465111,-4767178.183445,3441499.923076,13.524935,33.567039,45.157669,74.041122,41.248608,-179.873260,0.747483,0.563202,-0.281857,0.211257,133,32.866373,-117.254095,-39.604043,-2455688.854760,-4767177.504090,3441498.912062,5.868453
3248400252081,3254226257000,1422734924324782336,3254226257000,324791000,25,2,4,20,8,26,324,16,23.379999,101.729004,0.155325,0.551329,-0.063934,6.445385,-0.004841,7.377850,25,2,4,20,8,26,199,9,3,32.866374,-117.254107,-37.794000,-2455690.465111,-4767178.183445,3441499.923076,13.524935,33.567039,45.157669,74.039970,41.248020,-179.874832,0.747487,0.563199,-0.281848,0.211261,133,32.866373,-117.254095,-39.602531,-2455688.850239,-4767177.507276,3441498.913669,5.870544
3248424491136,3254251257000,1422734924349782272,3254251257000,349791000,25,2,4,20,8,26,349,16,23.379999,101.729004,0.156023,0.551333,-0.064647,6.453044,0.015354,7.383595,25,2,4,20,8,26,199,9,3,32.866374,-117.254107,-37.794000,-2455690.465111,-4767178.183445,3441499.923076,13.524935,33.567039,45.157669,74.038147,41.249706,-179.877609,0.747487,0.563191,-0.281849,0.211283,32901,32.866373,-117.254095,-39.600957,-2455688.845811,-4767177.510455,3441498.915334,5.872641
3248449783210,3254276257000,1422734924374782208,3254276257000,374791000,25,2,4,20,8,26,374,0,23.379999,101.717003,0.153942,0.551302,-0.064883,6.462219,-0.011419,7.358782,25,2,4,20,8,26,199,9,3,32.866374,-117.254107,-37.794000,-2455690.465111,-4767178.183445,3441499.923076,13.524935,33.567039,45.157669,74.035248,41.250210,-179.880569,0.747495,0.563178,-0.281843,0.211298,32901,32.866373,-117.254095,-39.599443,-2455688.841279,-4767177.513669,3441498.916913,5.874743
3248475076321,3254301257000,1422734924399782144,3254301257000,399791000,25,2,4,20,8,26,399,16,23.400000,101.721008,0.154851,0.550365,-0.063442,6.480795,0.022744,7.357296,25,2,4,20,8,26,199,9,3,32.866374,-117.254107,-37.794000,-2455690.465111,-4767178.183445,3441499.923076,13.524935,33.567039,45.157669,74.033844,41.252071,-179.882385,0.747494,0.563170,-0.281848,0.211316,8325,32.866373,-117.254095,-39.597840,-2455688.836873,-4767177.516886,3441498.918565,5.876850
3248500379396,3254326257000,1422734924424782336,3254326257000,424791000,25,2,4,20,8,26,424,16,23.379999,101.717003,0.156249,0.551343,-0.063697,6.456957,0.012162,7.356772,25,2,4,20,8,26,199,9,3,32.866374,-117.254107,-37.794000,-2455690.465111,-4767178.183445,3441499.923076,13.524935,33.567039,45.157669,74.033440,41.254623,-179.883041,0.747488,0.563164,-0.281863,0.211332,8325,32.866373,-117.254095,-39.596340,-2455688.832331,-4767177.520123,3441498.920094,5.878962
3248525671173,3254351256000,1422734924449781248,3254351256000,449790000,25,2,4,20,8,26,449,16,23.379999,101.717003,0.155101,0.552045,-0.064184,6.452796,0.007071,7.357014,25,2,4,20,8,26,399,9,3,32.866374,-117.254108,-37.773000,-2455690.545111,-4767178.153445,3441499.933076,13.529409,33.565620,45.048889,74.031723,41.256763,-179.884933,0.747488,0.563154,-0.281870,0.211350,8325,32.866373,-117.254095,-39.594898,-2455688.827781,-4767177.523225,3441498.921707,5.880655
3248549916673,3254376257000,1422734924474782208,3254376257000,474791000,25,2,4,20,8,26,474,0,23.379997,101.717003,0.155311,0.550861,-0.062263,6.457096,0.005288,7.400840,25,2,4,20,8,26,399,9,3,32.866374,-117.254108,-37.773000,-2455690.545111,-4767178.153445,3441499.933076,13.529409,33.565620,45.048889,74.033676,41.254879,-179.882889,0.747487,0.563165,-0.281865,0.211332,36997,32.866373,-117.254095,-39.600337,-2455688.846003,-4767177.512414,3441498.913644,5.867568
3248576264099,3254401260000,1422734924499785216,3254401260000,499794000,25,2,4,20,8,26,499,16,23.389997,101.729004,0.155780,0.551103,-0.062980,6.482112,0.045689,7.335682,25,2,4,20,8,26,399,9,3,32.866374,-117.254108,-37.773000,-2455690.545111,-4767178.153445,3441499.933076,13.529409,33.565620,45.048889,74.034615,41.254272,-179.881638,0.747486,0.563169,-0.281865,0.211323,36997,32.866373,-117.254095,-39.598907,-2455688.841492,-4767177.515523,3441498.915200,5.869676
3248599460062,3254426257000,1422734924524782080,3254426257000,524791000,25,2,4,20,8,26,524,16,23.389997,101.729004,0.155782,0.550857,-0.063688,6.454154,0.003418,7.355843,25,2,4,20,8,26,399,9,3,32.866374,-117.254108,-37.773000,-2455690.545111,-4767178.153445,3441499.933076,13.529409,33.565620,45.048889,74.034264,41.255157,-179.881592,0.747485,0.563165,-0.281872,0.211327,14469,32.866373,-117.254095,-39.597327,-2455688.837011,-4767177.518788,3441498.916795,5.871789
3248625807710,3254451257000,1422734924549782272,3254451257000,549791000,25,2,4,20,8,26,549,16,23.379999,101.717003,0.154871,0.551309,-0.065596,6.460664,0.014015,7.381392,25,2,4,20,8,26,399,9,3,32.866374,-117.254108,-37.773000,-2455690.545111,-4767178.153445,3441499.933076,13.529409,33.565620,45.048889,74.032860,41.254971,-179.882126,0.747492,0.563158,-0.281870,0.211326,14469,32.866373,-117.254095,-39.595833,-2455688.832506,-4767177.521937,3441498.918407,5.873906
3248650048414,3254476257000,1422734924574782464,3254476257000,574791000,25,2,4,20,8,26,574,0,23.385000,101.733002,0.155321,0.550603,-0.064634,6.468077,0.030841,7.374259,25,2,4,20,8,26,399,9,3,32.866374,-117.254108,-37.773000,-2455690.545111,-4767178.153445,3441499.933076,13.529409,33.565620,45.048889,74.031303,41.253780,-179.883774,0.747499,0.563154,-0.281857,0.211327,32901,32.866373,-117.254095,-39.594280,-2455688.828125,-4767177.525139,3441498.919968,5.876029
3248675341766,3254501257000,1422734924599782144,3254501257000,599791000,25,2,4,20,8,26,599,16,23.390001,101.733002,0.154850,0.550854,-0.062500,6.460690,0.026508,7.355316,25,2,4,20,8,26,399,9,3,32.866374,-117.254108,-37.773000,-2455690.545111,-4767178.153445,3441499.933076,13.529409,33.565620,45.048889,74.031494,41.252663,-179.883316,0.747502,0.563156,-0.281852,0.211319,32901,32.866373,-117.254095,-39.592762,-2455688.823543,-4767177.528356,3441498.921588,5.878158
3248700633081,3254526257000,1422734924624782336,3254526257000,624791000,25,2,4,20,8,26,624,16,23.389997,101.717003,0.155553,0.550605,-0.064634,6.461059,0.025323,7.345857,25,2,4,20,8,26,399,9,3,32.866374,-117.254108,-37.773000,-2455690.545111,-4767178.153445,3441499.933076,13.529409,33.565620,45.048889,74.033371,41.252762,-179.881836,0.747495,0.563165,-0.281856,0.211314,12421,32.866373,-117.254094,-39.591283,-2455688.819094,-4767177.531466,3441498.923187,5.880292
3248725925303,3254551256000,1422734924649781248,3254551256000,649790000,25,2,4,20,8,26,649,16,23.379999,101.717003,0.155321,0.551091,-0.063692,6.462689,0.032442,7.335810,25,2,4,20,8,26,599,9,3,32.866374,-117.254109,-37.773000,-2455690.625111,-4767178.113445,3441499.923076,13.533745,33.563938,44.942211,74.032516,41.254150,-179.883011,0.747494,0.563159,-0.281861,0.211327,12421,32.866373,-117.254094,-39.589823,-2455688.814536,-4767177.534689,3441498.924673,5.882002
3248750165377,3254576257000,1422734924674782208,3254576257000,674791000,25,2,4,20,8,26,674,0,23.400002,101.721008,0.156004,0.549898,-0.063671,6.446934,0.013897,7.357066,25,2,4,20,8,26,599,9,3,32.866374,-117.254109,-37.773000,-2455690.625111,-4767178.113445,3441499.923076,13.533745,33.563938,44.942211,74.032249,41.254745,-179.883041,0.747494,0.563156,-0.281866,0.211329,41093,32.866373,-117.254095,-39.605306,-2455688.833043,-4767177.519576,3441498.903820,5.868706
3248775461692,3254601257000,1422734924699782400,3254601257000,699791000,25,2,4,20,8,26,699,16,23.400000,101.733002,0.155095,0.552297,-0.062763,6.454126,0.024195,7.370093,25,2,4,20,8,26,599,9,3,32.866374,-117.254109,-37.773000,-2455690.625111,-4767178.113445,3441499.923076,13.533745,33.563938,44.942211,74.032036,41.253540,-179.884064,0.747496,0.563160,-0.281853,0.211329,41093,32.866373,-117.254095,-39.603729,-2455688.828653,-4767177.522759,3441498.905458,5.870834
3248800753636,3254626257000,1422734924724782336,3254626257000,724791000,25,2,4,20,8,26,724,16,23.379999,101.729004,0.154633,0.551802,-0.063705,6.465039,0.000384,7.384002,25,2,4,20,8,26,599,9,3,32.866374,-117.254109,-37.773000,-2455690.625111,-4767178.113445,3441499.923076,13.533745,33.563938,44.942211,74.030426,41.252113,-179.885361,0.747505,0.563155,-0.281840,0.211327,133,32.866373,-117.254095,-39.602248,-2455688.824240,-4767177.525921,3441498.906965,5.872968
3248826045488,3254651257000,1422734924749782272,3254651257000,749791000,25,2,4,20,8,26,749,16,23.400000,101.733002,0.155543,0.550377,-0.063204,6.468170,0.018192,7.373812,25,2,4,20,8,26,599,9,3,32.866374,-117.254109,-37.773000,-2455690.625111,-4767178.113445,3441499.923076,13.533745,33.563938,44.942211,74.030045,41.251316,-179.886429,0.747507,0.563157,-0.281831,0.211329,133,32.866373,-117.254094,-39.600785,-2455688.819754,-4767177.529117,3441498.908443,5.875107
3248850283969,3254676257000,1422734924774782208,3254676257000,774791000,25,2,4,20,8,26,774,0,23.400002,101.733002,0.156010,0.550133,-0.064388,6.459855,0.021622,7.390941,25,2,4,20,8,26,599,9,3,32.866374,-117.254109,-37.773000,-2455690.625111,-4767178.113445,3441499.923076,13.533745,33.563938,44.942211,74.029846,41.250706,-179.885422,0.747511,0.563154,-0.281832,0.211319,32901,32.866373,-117.254094,-39.599264,-2455688.815285,-4767177.532275,3441498.910066,5.877250
3248875575692,3254701257000,1422734924799782400,3254701257000,799791000,25,2,4,20,8,26,799,16,23.379999,101.717003,0.154858,0.550597,-0.064396,6.427671,-0.001731,7.354006,25,2,4,20,8,26,599,9,3,32.866374,-117.254109,-37.773000,-2455690.625111,-4767178.113445,3441499.923076,13.533745,33.563938,44.942211,74.028412,41.249554,-179.886780,0.747518,0.563150,-0.281820,0.211318,32901,32.866373,-117.254094,-39.597639,-2455688.810904,-4767177.535543,3441498.911669,5.879400
3248900867210,3254726257000,1422734924824782336,3254726257000,824791000,25,2,4,20,8,26,824,16,23.390001,101.733002,0.154631,0.551076,-0.064404,6.427610,0.012814,7.368523,25,2,4,20,8,26,599,9,3,32.866374,-117.254109,-37.773000,-2455690.625111,-4767178.113445,3441499.923076,13.533745,33.563938,44.942211,74.027489,41.249092,-179.888657,0.747521,0.563150,-0.281810,0.211326,133,32.866373,-117.254094,-39.596207,-2455688.806374,-4767177.538718,3441498.913152,5.881555
3248926159525,3254751256000,1422734924849781248,3254751256000,849790000,25,2,4,20,8,26,849,16,23.379999,101.729004,0.156029,0.552054,-0.064660,6.472614,0.002131,7.330416,25,2,4,20,8,26,799,9,3,32.866374,-117.254109,-37.774000,-2455690.665111,-4767178.103445,3441499.913076,13.538345,33.565262,44.837517,74.027428,41.247284,-179.888718,0.747525,0.563153,-0.281798,0.211318,133,32.866373,-117.254094,-39.594752,-2455688.801916,-4767177.541875,3441498.914649,5.883282
3248950409395,3254776257000,1422734924874782208,3254776257000,874791000,25,2,4,20,8,26,874,0,23.379999,101.717003,0.155538,0.549896,-0.063196,6.452914,-0.007225,7.362293,25,2,4,20,8,26,799,9,3,32.866374,-117.254109,-37.774000,-2455690.665111,-4767178.103445,3441499.913076,13.538345,33.565262,44.837517,74.024544,41.250217,-179.891342,0.747527,0.563135,-0.281809,0.211342,32901,32.866373,-117.254095,-39.611741,-2455688.826452,-4767177.521997,3441498.893303,5.866313
3248975712266,3254801257000,1422734924899782144,3254801257000,899791000,25,2,4,20,8,26,899,16,23.379999,101.717003,0.155554,0.551334,-0.063697,6.457964,-0.010611,7.366598,25,2,4,20,8,26,799,9,3,32.866374,-117.254109,-37.774000,-2455690.665111,-4767178.103445,3441499.913076,13.538345,33.565262,44.837517,74.023949,41.249214,-179.892471,0.747531,0.563136,-0.281798,0.211343,32901,32.866373,-117.254095,-39.610191,-2455688.822045,-4767177.525220,3441498.894847,5.868441
3249001016766,3254826258000,1422734924924783104,3254826258000,924792000,25,2,4,20,8,26,924,16,23.389997,101.729004,0.154860,0.551325,-0.063696,6.449941,0.018110,7.361913,25,2,4,20,8,26,799,9,3,32.866374,-117.254109,-37.774000,-2455690.665111,-4767178.103445,3441499.913076,13.538345,33.565262,44.837517,74.025337,41.247707,-179.891876,0.747528,0.563146,-0.281789,0.211335,133,32.866373,-117.254094,-39.608789,-2455688.817693,-4767177.528283,3441498.896301,5.870574
3249025269803,3254851257000,1422734924949782272,3254851257000,949791000,25,2,4,20,8,26,949,16,23.384998,101.729004,0.155788,0.550847,-0.064876,6.458065,0.015873,7.358254,25,2,4,20,8,26,799,9,3,32.866374,-117.254109,-37.774000,-2455690.665111,-4767178.103445,3441499.913076,13.538345,33.565262,44.837517,74.025406,41.247189,-179.892014,0.747529,0.563148,-0.281785,0.211334,133,32.866373,-117.254094,-39.607259,-2455688.813379,-4767177.531525,3441498.897717,5.872713
3249050582414,3254876257000,1422734924974782208,3254876257000,974791000,25,2,4,20,8,26,974,0,23.379999,101.717003,0.154855,0.550602,-0.063921,6.452424,0.013118,7.377192,25,2,4,20,8,26,799,9,3,32.866374,-117.254109,-37.774000,-2455690.665111,-4767178.103445,3441499.913076,13.538345,33.565262,44.837517,74.024361,41.247284,-179.892792,0.747533,0.563143,-0.281784,0.211337,32901,32.866373,-117.254094,-39.605811,-2455688.808967,-4767177.534653,3441498.899208,5.874856
3249075895154,3254901257000,1422734924999782400,3254901257000,999791000,25,2,4,20,8,26,999,16,23.400000,101.721008,0.155536,0.550142,-0.062488,6.461835,0.014364,7.351982,25,2,4,20,8,26,799,9,3,32.866374,-117.254109,-37.774000,-2455690.665111,-4767178.103445,3441499.913076,13.538345,33.565262,44.837517,74.023224,41.245785,-179.894958,0.747538,0.563144,-0.281765,0.211341,32901,32.866373,-117.254094,-39.604241,-2455688.804691,-4767177.537836,3441498.900753,5.877006
3249100148154,3254926257000,1422734925024782080,3254926257000,24793000,25,2,4,20,8,27,24,16,23.390001,101.733002,0.155337,0.552285,-0.064664,6.473815,0.032428,7.350165,25,2,4,20,8,26,799,9,3,32.866374,-117.254109,-37.774000,-2455690.665111,-4767178.103445,3441499.913076,13.538345,33.565262,44.837517,74.023758,41.245453,-179.893997,0.747538,0.563145,-0.281767,0.211334,2181,32.866373,-117.254094,-39.602780,-2455688.800226,-4767177.541020,3441498.902229,5.879160
3249125445117,3254951256000,1422734925049783296,3254951256000,49792000,25,2,4,20,8,27,49,16,23.379999,101.729004,0.154857,0.551573,-0.062750,6.452633,0.045626,7.357243,25,2,4,20,8,27,0,9,3,32.866374,-117.254109,-37.819000,-2455690.655111,-4767178.083445,3441499.873076,13.543548,33.568371,44.734764,74.023956,41.245090,-179.893402,0.747539,0.563146,-0.281767,0.211329,2181,32.866373,-117.254094,-39.601344,-2455688.795809,-4767177.544225,3441498.903596,5.880888
3249150740914,3254976257000,1422734925074784256,3254976257000,74793000,25,2,4,20,8,27,74,0,23.379999,101.729004,0.155083,0.550122,-0.064150,6.437754,0.007767,7.358536,25,2,4,20,8,27,0,9,3,32.866374,-117.254109,-37.819000,-2455690.655111,-4767178.083445,3441499.873076,13.543548,33.568371,44.734764,74.026642,41.243927,-179.891739,0.747532,0.563161,-0.281763,0.211319,41093,32.866373,-117.254094,-39.618954,-2455688.813267,-4767177.532258,3441498.875236,5.866838
3249176046228,3255001257000,1422734925099784192,3255001257000,99793000,25,2,4,20,8,27,99,16,23.379999,101.729004,0.156004,0.550629,-0.062496,6.461337,0.019302,7.389727,25,2,4,20,8,27,0,9,3,32.866374,-117.254109,-37.819000,-2455690.655111,-4767178.083445,3441499.873076,13.543548,33.568371,44.734764,74.027580,41.243176,-179.890045,0.747532,0.563165,-0.281764,0.211306,41093,32.866373,-117.254094,-39.617471,-2455688.808934,-4767177.535446,3441498.876656,5.868983
3249200289932,3255026256000,1422734925124783360,3255026256000,124792000,25,2,4,20,8,27,124,16,23.379999,101.729004,0.156229,0.549667,-0.062954,6.459289,0.042959,7.362570,25,2,4,20,8,27,0,9,3,32.866374,-117.254109,-37.819000,-2455690.655111,-4767178.083445,3441499.873076,13.543548,33.568371,44.734764,74.028938,41.243469,-179.890045,0.747525,0.563173,-0.281764,0.211311,41093,32.866373,-117.254094,-39.615999,-2455688.804605,-4767177.538626,3441498.878061,5.871133
3249225588136,3255051257000,1422734925149784064,3255051257000,149793000,25,2,4,20,8,27,149,16,23.384998,101.717003,0.156486,0.551826,-0.063943,6.452694,0.044432,7.352557,25,2,4,20,8,27,0,9,3,32.866374,-117.254109,-37.819000,-2455690.655111,-4767178.083445,3441499.873076,13.543548,33.568371,44.734764,74.030106,41.244114,-179.889252,0.747519,0.563178,-0.281770,0.211312,133,32.866373,-117.254094,-39.614608,-2455688.800302,-4767177.541732,3441498.879400,5.873288
3249250894284,3255076257000,1422734925174784256,3255076257000,174793000,25,2,4,20,8,27,174,0,23.379999,101.717003,0.156025,0.552060,-0.063947,6.455185,0.040438,7.363666,25,2,4,20,8,27,0,9,3,32.866374,-117.254109,-37.819000,-2455690.655111,-4767178.083445,3441499.873076,13.543548,33.568371,44.734764,74.031860,41.243984,-179.887573,0.747513,0.563185,-0.281774,0.211305,133,32.866373,-117.254094,-39.613081,-2455688.795922,-4767177.545004,3441498.880816,5.875449
3249275135395,3255101257000,1422734925199784192,3255101257000,199793000,25,2,4,20,8,27,199,16,23.389997,101.717003,0.155794,0.551568,-0.064889,6.465078,0.022493,7.370420,25,2,4,20,8,27,0,9,3,32.866374,-117.254109,-37.819000,-2455690.655111,-4767178.083445,3441499.873076,13.543548,33.568371,44.734764,74.032425,41.244244,-179.887085,0.747511,0.563187,-0.281777,0.211304,32901,32.866373,-117.254094,-39.611538,-2455688.791692,-4767177.548182,3441498.882283,5.877615
3249300433747,3255126257000,1422734925224784128,3255126257000,224793000,25,2,4,20,8,27,224,16,23.379999,101.729004,0.155567,0.552290,-0.064426,6.461891,0.022811,7.374248,25,2,4,20,8,27,0,9,3,32.866374,-117.254109,-37.819000,-2455690.655111,-4767178.083445,3441499.873076,13.543548,33.568371,44.734764,74.030899,41.245331,-179.887329,0.747515,0.563176,-0.281786,0.211307,32901,32.866373,-117.254094,-39.610083,-2455688.787298,-4767177.551392,3441498.883663,5.879786
3249325727451,3255151256000,1422734925249783296,3255151256000,249792000,25,2,4,20,8,27,249,16,23.379999,101.729004,0.156706,0.551357,-0.062747,6.459766,0.000906,7.388913,25,2,4,20,8,27,199,9,3,32.866373,-117.254109,-37.829000,-2455690.675111,-4767178.073445,3441499.843076,13.548817,33.571827,44.634064,74.030411,41.246304,-179.887421,0.747515,0.563171,-0.281792,0.211312,133,32.866373,-117.254094,-39.608688,-2455688.782918,-4767177.554451,3441498.885129,5.881527
3249349970728,3255176257000,1422734925274784000,3255176257000,274793000,25,2,4,20,8,27,274,0,23.395000,101.717003,0.156239,0.550382,-0.063680,6.464426,0.028394,7.374804,25,2,4,20,8,27,199,9,3,32.866373,-117.254109,-37.829000,-2455690.675111,-4767178.073445,3441499.843076,13.548817,33.571827,44.634064,74.029137,41.245796,-179.888260,0.747521,0.563166,-0.281787,0.211312,133,32.866372,-117.254094,-39.653056,-2455688.783179,-4767177.534586,3441498.830521,5.862701
3249375266117,3255201257000,1422734925299784192,3255201257000,299793000,25,2,4,20,8,27,299,16,23.379999,101.729004,0.155101,0.550826,-0.066301,6.453513,0.034915,7.389547,25,2,4,20,8,27,199,9,3,32.866373,-117.254109,-37.829000,-2455690.675111,-4767178.073445,3441499.843076,13.548817,33.571827,44.634064,74.028374,41.245464,-179.888565,0.747525,0.563162,-0.281785,0.211310,32901,32.866372,-117.254094,-39.651592,-2455688.778909,-4767177.537775,3441498.831856,5.864835
3249400562414,3255226257000,1422734925324784384,3255226257000,324793000,25,2,4,20,8,27,324,16,23.379999,101.729004,0.156002,0.550631,-0.062259,6.465952,0.022221,7.346702,25,2,4,20,8,27,199,9,3,32.866373,-117.254109,-37.829000,-2455690.675111,-4767178.073445,3441499.843076,13.548817,33.571827,44.634064,74.028664,41.243214,-179.887650,0.747531,0.563166,-0.281774,0.211294,32901,32.866372,-117.254094,-39.650243,-2455688.774545,-4767177.540913,3441498.833119,5.866974
3249425857117,3255251257000,1422734925349784064,3255251257000,349793000,25,2,4,20,8,27,349,16,23.379999,101.717003,0.156025,0.551329,-0.065122,6.457977,0.003791,7.348372,25,2,4,20,8,27,199,9,3,32.866373,-117.254109,-37.829000,-2455690.675111,-4767178.073445,3441499.843076,13.548817,33.571827,44.634064,74.029480,41.244781,-179.887604,0.747523,0.563168,-0.281783,0.211303,133,32.866372,-117.254094,-39.648813,-2455688.770207,-4767177.544202,3441498.834302,5.869120
3249450113710,3255276257000,1422734925374784256,3255276257000,374793000,25,2,4,20,8,27,374,0,23.379999,101.729004,0.155799,0.551561,-0.065839,6.427575,0.013713,7.356178,25,2,4,20,8,27,199,9,3,32.866373,-117.254109,-37.829000,-2455690.675111,-4767178.073445,3441499.843076,13.548817,33.571827,44.634064,74.028549,41.245083,-179.889343,0.747524,0.563166,-0.281778,0.211314,133,32.866372,-117.254094,-39.647398,-2455688.765816,-4767177.547369,3441498.835665,5.871270
3249475406858,3255301260000,1422734925399787264,3255301260000,399796000,25,2,4,20,8,27,399,16,23.379999,101.729004,0.154624,0.551327,-0.062984,6.435399,0.028214,7.350892,25,2,4,20,8,27,199,9,3,32.866373,-117.254109,-37.829000,-2455690.675111,-4767178.073445,3441499.843076,13.548817,33.571827,44.634064,74.026161,41.244263,-179.891815,0.747533,0.563158,-0.281765,0.211320,32901,32.866372,-117.254094,-39.646014,-2455688.761499,-4767177.550564,3441498.836878,5.873425
3249500701580,3255326257000,1422734925424784128,3255326257000,424793000,25,2,4,20,8,27,424,16,23.379999,101.729004,0.155339,0.552037,-0.065610,6.452894,0.013777,7.376731,25,2,4,20,8,27,199,9,3,32.866373,-117.254109,-37.829000,-2455690.675111,-4767178.073445,3441499.843076,13.548817,33.571827,44.634064,74.025871,41.244015,-179.892349,0.747534,0.563158,-0.281762,0.211321,32901,32.866372,-117.254094,-39.644557,-2455688.757075,-4767177.553839,3441498.838194,5.875586
3249524951154,3255351257000,1422734925449784320,3255351257000,449793000,25,2,4,20,8,27,449,16,23.384998,101.717003,0.155092,0.551084,-0.064167,6.458007,0.012149,7.355492,25,2,4,20,8,27,399,9,3,32.866373,-117.254109,-37.853000,-2455690.655111,-4767178.063445,3441499.823076,13.553623,33.572346,44.535183,74.024109,41.243427,-179.894104,0.747541,0.563152,-0.281752,0.211326,133,32.866372,-117.254094,-39.643222,-2455688.752751,-4767177.557042,3441498.839309,5.877318
3249550245173,3255376257000,1422734925474784256,3255376257000,474793000,25,2,4,20,8,27,474,0,23.395000,101.729004,0.155560,0.551082,-0.065118,6.451992,0.021202,7.381222,25,2,4,20,8,27,399,9,3,32.866373,-117.254109,-37.853000,-2455690.655111,-4767178.063445,3441499.823076,13.553623,33.572346,44.535183,74.023811,41.241451,-179.894257,0.747547,0.563154,-0.281739,0.211316,133,32.866372,-117.254094,-39.707768,-2455688.751771,-4767177.491741,3441498.810917,5.852854
3249575546673,3255401257000,1422734925499784192,3255401257000,499793000,25,2,4,20,8,27,499,16,23.390001,101.721008,0.155544,0.550374,-0.063442,6.471249,0.010535,7.335300,25,2,4,20,8,27,399,9,3,32.866373,-117.254109,-37.853000,-2455690.655111,-4767178.063445,3441499.823076,13.553623,33.572346,44.535183,74.022530,41.240463,-179.895309,0.747554,0.563150,-0.281730,0.211315,32901,32.866372,-117.254094,-39.706431,-2455688.747378,-4767177.494884,3441498.812168,5.854947
3249599806358,3255426257000,1422734925524784128,3255426257000,524793000,25,2,4,20,8,27,524,16,23.379999,101.729004,0.154644,0.552029,-0.065372,6.462606,-0.000436,7.363069,25,2,4,20,8,27,399,9,3,32.866373,-117.254109,-37.853000,-2455690.655111,-4767178.063445,3441499.823076,13.553623,33.572346,44.535183,74.021332,41.239174,-179.896606,0.747560,0.563148,-0.281717,0.211314,32901,32.866372,-117.254094,-39.705126,-2455688.743160,-4767177.497920,3441498.813385,5.857044
3249625113487,3255451257000,1422734925549784064,3255451257000,549793000,25,2,4,20,8,27,549,16,23.384998,101.741005,0.154639,0.551793,-0.064893,6.476047,-0.012464,7.374027,25,2,4,20,8,27,399,9,3,32.866373,-117.254109,-37.853000,-2455690.655111,-4767178.063445,3441499.823076,13.553623,33.572346,44.535183,74.021423,41.238567,-179.897186,0.747560,0.563151,-0.281711,0.211315,133,32.866372,-117.254094,-39.703792,-2455688.738820,-4767177.501065,3441498.814593,5.859147
3249650415339,3255476256000,1422734925574782976,3255476256000,574792000,25,2,4,20,8,27,574,0,23.395000,101.717003,0.155549,0.550853,-0.063688,6.470119,-0.006469,7.364295,25,2,4,20,8,27,399,9,3,32.866373,-117.254109,-37.853000,-2455690.655111,-4767178.063445,3441499.823076,13.553623,33.572346,44.535183,74.021294,41.239609,-179.897446,0.747558,0.563148,-0.281716,0.211322,133,32.866372,-117.254094,-39.702457,-2455688.734473,-4767177.504111,3441498.815943,5.861254
3249675722117,3255501257000,1422734925599784192,3255501257000,599793000,25,2,4,20,8,27,599,16,23.379999,101.717003,0.155065,0.549416,-0.062237,6.454082,-0.002817,7.388924,25,2,4,20,8,27,399,9,3,32.866373,-117.254109,-37.853000,-2455690.655111,-4767178.063445,3441499.823076,13.553623,33.572346,44.535183,74.020813,41.239246,-179.897842,0.747561,0.563147,-0.281713,0.211321,133,32.866372,-117.254094,-39.701066,-2455688.730110,-4767177.507320,3441498.817183,5.863367
3249699977710,3255526257000,1422734925624784128,3255526257000,624793000,25,2,4,20,8,27,624,16,23.379999,101.729004,0.154397,0.551560,-0.063463,6.462716,0.015788,7.373502,25,2,4,20,8,27,399,9,3,32.866373,-117.254109,-37.853000,-2455690.655111,-4767178.063445,3441499.823076,13.553623,33.572346,44.535183,74.021355,41.238255,-179.897903,0.747560,0.563153,-0.281705,0.211318,32901,32.866372,-117.254094,-39.699794,-2455688.725783,-4767177.510397,3441498.818360,5.865484
3249725288191,3255551257000,1422734925649784064,3255551257000,649793000,25,2,4,20,8,27,649,16,23.379999,101.729004,0.155774,0.550622,-0.062972,6.445424,-0.000239,7.346189,25,2,4,20,8,27,599,9,3,32.866373,-117.254110,-37.804000,-2455690.745111,-4767178.063445,3441499.853076,13.558070,33.574158,44.438240,74.020561,41.237625,-179.899170,0.747563,0.563152,-0.281696,0.211321,32901,32.866372,-117.254094,-39.698551,-2455688.721435,-4767177.513417,3441498.819576,5.867182
3249750598636,3255576257000,1422734925674784256,3255576257000,674793000,25,2,4,20,8,27,674,0,23.379999,101.717003,0.156708,0.551353,-0.063222,6.469374,0.010081,7.319411,25,2,4,20,8,27,599,9,3,32.866373,-117.254110,-37.804000,-2455690.745111,-4767178.063445,3441499.853076,13.558070,33.574158,44.438240,74.020058,41.236328,-179.899567,0.747568,0.563152,-0.281687,0.211316,133,32.866372,-117.254094,-39.707839,-2455688.739941,-4767177.501722,3441498.805437,5.853117
3249774842561,3255601257000,1422734925699784192,3255601257000,699793000,25,2,4,20,8,27,699,16,23.379999,101.717003,0.155338,0.552039,-0.065372,6.453124,-0.015977,7.351628,25,2,4,20,8,27,599,9,3,32.866373,-117.254110,-37.804000,-2455690.745111,-4767178.063445,3441499.853076,13.558070,33.574158,44.438240,74.019218,41.238453,-179.900940,0.747564,0.563146,-0.281695,0.211334,133,32.866372,-117.254094,-39.706424,-2455688.735688,-4767177.504906,3441498.806677,5.855649
3249800140265,3255626256000,1422734925724783104,3255626256000,724792000,25,2,4,20,8,27,724,16,23.379999,101.717003,0.154872,0.552524,-0.063955,6.470304,0.015999,7.345097,25,2,4,20,8,27,599,9,3,32.866373,-117.254110,-37.804000,-2455690.745111,-4767178.063445,3441499.853076,13.558070,33.574158,44.438240,74.018356,41.239410,-179.901016,0.747566,0.563139,-0.281703,0.211337,32901,32.866372,-117.254094,-39.705198,-2455688.731383,-4767177.507931,3441498.807826,5.857763
3249825434117,3255651257000,1422734925749784320,3255651257000,749793000,25,2,4,20,8,27,749,16,23.379999,101.729004,0.155796,0.552053,-0.064422,6.454978,0.017743,7.370259,25,2,4,20,8,27,599,9,3,32.866373,-117.254110,-37.804000,-2455690.745111,-4767178.063445,3441499.853076,13.558070,33.574158,44.438240,74.018898,41.238670,-179.899597,0.747568,0.563140,-0.281704,0.211325,32901,32.866372,-117.254094,-39.703887,-2455688.727121,-4767177.510973,3441498.809075,5.859883
3249849676154,3255676257000,1422734925774784000,3255676257000,774793000,25,2,4,20,8,27,774,0,23.385000,101.733002,0.154850,0.550851,-0.062738,6.455431,0.012517,7.365134,25,2,4,20,8,27,599,9,3,32.866373,-117.254110,-37.804000,-2455690.745111,-4767178.063445,3441499.853076,13.558070,33.574158,44.438240,74.020050,41.239464,-179.899628,0.747560,0.563146,-0.281707,0.211332,133,32.866372,-117.254094,-39.702579,-2455688.722745,-4767177.514084,3441498.810309,5.862008
3249874979061,3255701257000,1422734925799784192,3255701257000,799793000,25,2,4,20,8,27,799,16,23.379999,101.717003,0.156485,0.551339,-0.064647,6.470652,0.012874,7.392759,25,2,4,20,8,27,599,9,3,32.866373,-117.254110,-37.804000,-2455690.745111,-4767178.063445,3441499.853076,13.558070,33.574158,44.438240,74.019264,41.238491,-179.901367,0.747563,0.563147,-0.281694,0.211337,133,32.866372,-117.254094,-39.701278,-2455688.718466,-4767177.517150,3441498.811520,5.864139
3249900272580,3255726257000,1422734925824784384,3255726257000,824793000,25,2,4,20,8,27,824,16,23.379999,101.717003,0.155562,0.551567,-0.064651,6.447753,0.014026,7.362021,25,2,4,20,8,27,599,9,3,32.866373,-117.254110,-37.804000,-2455690.745111,-4767178.063445,3441499.853076,13.558070,33.574158,44.438240,74.019096,41.239281,-179.902084,0.747561,0.563146,-0.281695,0.211345,47237,32.866372,-117.254094,-39.699921,-2455688.714168,-4767177.520296,3441498.812739,5.866274
3249925573987,3255751256000,1422734925849783296,3255751256000,849792000,25,2,4,20,8,27,849,16,23.379999,101.717003,0.155329,0.551321,-0.064884,6.449642,0.017194,7.415401,25,2,4,20,8,27,799,9,3,32.866373,-117.254111,-37.769000,-2455690.855111,-4767178.043445,3441499.863076,13.563810,33.583340,44.343105,74.019142,41.240135,-179.900681,0.747561,0.563141,-0.281708,0.211340,47237,32.866372,-117.254094,-39.706115,-2455688.735221,-4767177.508747,3441498.802294,5.867987
3249949831061,3255776257000,1422734925874784256,3255776257000,874793000,25,2,4,20,8,27,874,0,23.379997,101.729004,0.155563,0.552296,-0.063714,6.464772,0.010127,7.389402,25,2,4,20,8,27,799,9,3,32.866373,-117.254111,-37.769000,-2455690.855111,-4767178.043445,3441499.863076,13.563810,33.583340,44.343105,74.017471,41.240326,-179.902802,0.747565,0.563135,-0.281702,0.211351,2181,32.866372,-117.254094,-39.704699,-2455688.731106,-4767177.511903,3441498.803476,5.855684
3249975140358,3255801257000,1422734925899784192,3255801257000,899793000,25,2,4,20,8,27,899,16,23.389997,101.717003,0.155553,0.551092,-0.063930,6.454372,0.004027,7.361412,25,2,4,20,8,27,799,9,3,32.866373,-117.254111,-37.769000,-2455690.855111,-4767178.043445,3441499.863076,13.563810,33.583340,44.343105,74.016693,41.239925,-179.904114,0.747567,0.563134,-0.281694,0.211355,2181,32.866372,-117.254094,-39.703484,-2455688.726740,-4767177.514985,3441498.804569,5.857819
3250000437265,3255826257000,1422734925924784128,3255826257000,924793000,25,2,4,20,8,27,924,16,23.379999,101.729004,0.155337,0.552529,-0.064193,6.437245,0.020959,7.377526,25,2,4,20,8,27,799,9,3,32.866373,-117.254111,-37.769000,-2455690.855111,-4767178.043445,3441499.863076,13.563810,33.583340,44.343105,74.016045,41.239227,-179.905289,0.747570,0.563134,-0.281685,0.211358,41093,32.866372,-117.254094,-39.702231,-2455688.722475,-4767177.518002,3441498.805749,5.859959
3250024683802,3255851257000,1422734925949784320,3255851257000,949793000,25,2,4,20,8,27,949,16,23.379999,101.717003,0.155775,0.549891,-0.064146,6.454106,0.031192,7.384079,25,2,4,20,8,27,799,9,3,32.866373,-117.254111,-37.769000,-2455690.855111,-4767178.043445,3441499.863076,13.563810,33.583340,44.343105,74.016174,41.239471,-179.905228,0.747569,0.563134,-0.281687,0.211359,41093,32.866372,-117.254094,-39.700962,-2455688.718178,-4767177.521061,3441498.806924,5.862105
3250049991432,3255876257000,1422734925974784256,3255876257000,974793000,25,2,4,20,8,27,974,0,23.395000,101.717003,0.155553,0.551336,-0.063459,6.442190,0.015450,7.369044,25,2,4,20,8,27,799,9,3,32.866373,-117.254111,-37.769000,-2455690.855111,-4767178.043445,3441499.863076,13.563810,33.583340,44.343105,74.016121,41.239552,-179.905426,0.747569,0.563134,-0.281686,0.211361,133,32.866372,-117.254093,-39.699624,-2455688.713955,-4767177.524152,3441498.808130,5.864256
3250075293154,3255901257000,1422734925999784192,3255901257000,999793000,25,2,4,20,8,27,999,16,23.390001,101.721008,0.155077,0.550618,-0.062258,6.454566,0.018275,7.369722,25,2,4,20,8,27,799,9,3,32.866373,-117.254111,-37.769000,-2455690.855111,-4767178.043445,3441499.863076,13.563810,33.583340,44.343105,74.017975,41.239658,-179.903702,0.747563,0.563142,-0.281692,0.211355,133,32.866372,-117.254093,-39.698406,-2455688.709602,-4767177.527193,3441498.809277,5.866412
3250099546524,3255926257000,1422734926024784128,3255926257000,24795000,25,2,4,20,8,28,24,16,23.390001,101.746002,0.154411,0.551786,-0.065367,6.435357,-0.009765,7.381403,25,2,4,20,8,27,799,9,3,32.866373,-117.254111,-37.769000,-2455690.855111,-4767178.043445,3441499.863076,13.563810,33.583340,44.343105,74.018814,41.238831,-179.902542,0.747563,0.563146,-0.281691,0.211345,32901,32.866372,-117.254093,-39.697141,-2455688.705217,-4767177.530241,3441498.810521,5.868574
3250124842432,3255951256000,1422734926049785088,3255951256000,49794000,25,2,4,20,8,28,49,16,23.384998,101.729004,0.155099,0.552291,-0.063476,6.457195,-0.000449,7.364699,25,2,4,20,8,28,0,9,3,32.866373,-117.254112,-37.774000,-2455690.945111,-4767178.013445,3441499.833076,13.569590,33.586700,44.249935,74.018494,41.238342,-179.902176,0.747566,0.563144,-0.281690,0.211339,32901,32.866372,-117.254093,-39.695955,-2455688.700832,-4767177.533298,3441498.811609,5.870306
3250150146987,3255976257000,1422734926074786304,3255976257000,74795000,25,2,4,20,8,28,74,0,23.379999,101.729004,0.156484,0.552072,-0.063235,6.444621,-0.015156,7.363784,25,2,4,20,8,28,0,9,3,32.866373,-117.254112,-37.774000,-2455690.945111,-4767178.013445,3441499.833076,13.569590,33.586700,44.249935,74.019737,41.238468,-179.901077,0.747562,0.563150,-0.281694,0.211336,32901,32.866372,-117.254094,-39.707778,-2455688.729635,-4767177.515747,3441498.793557,5.857825
3250175462580,3256001257000,1422734926099785984,3256001257000,99795000,25,2,4,20,8,28,99,16,23.379999,101.717003,0.155301,0.549170,-0.063421,6.453836,-0.026932,7.394826,25,2,4,20,8,28,0,9,3,32.866373,-117.254112,-37.774000,-2455690.945111,-4767178.013445,3441499.833076,13.569590,33.586700,44.249935,74.019203,41.239109,-179.902725,0.747560,0.563149,-0.281691,0.211348,133,32.866372,-117.254094,-39.706537,-2455688.725416,-4767177.518758,3441498.794689,5.859985
3250199704765,3256026257000,1422734926124786176,3256026257000,124795000,25,2,4,20,8,28,124,16,23.379999,101.729004,0.154627,0.551568,-0.062988,6.443135,0.011635,7.349957,25,2,4,20,8,28,0,9,3,32.866373,-117.254112,-37.774000,-2455690.945111,-4767178.013445,3441499.833076,13.569590,33.586700,44.249935,74.018578,41.240623,-179.903336,0.747558,0.563143,-0.281699,0.211358,133,32.866372,-117.254094,-39.705254,-2455688.721139,-4767177.521872,3441498.795801,5.862150
3250226058246,3256051257000,1422734926149786112,3256051257000,149795000,25,2,4,20,8,28,149,16,23.379999,101.729004,0.156242,0.550379,-0.064155,6.442175,0.002801,7.365379,25,2,4,20,8,28,0,9,3,32.866373,-117.254112,-37.774000,-2455690.945111,-4767178.013445,3441499.833076,13.569590,33.586700,44.249935,74.017860,41.241325,-179.905350,0.747556,0.563142,-0.281695,0.211373,32901,32.866372,-117.254094,-39.704060,-2455688.716931,-4767177.524836,3441498.796905,5.864321
3250250311617,3256076260000,1422734926174789120,3256076260000,174798000,25,2,4,20,8,28,174,0,23.385000,101.733002,0.155100,0.551803,-0.064418,6.477458,0.012962,7.355791,25,2,4,20,8,28,0,9,3,32.866373,-117.254112,-37.774000,-2455690.945111,-4767178.013445,3441499.833076,13.569590,33.586700,44.249935,74.017311,41.243206,-179.906067,0.747553,0.563137,-0.281705,0.211386,32901,32.866372,-117.254093,-39.702813,-2455688.712713,-4767177.527870,3441498.798019,5.866498
3250275624894,3256101257000,1422734926199786240,3256101257000,199795000,25,2,4,20,8,28,199,16,23.379999,101.729004,0.155318,0.551094,-0.063217,6.466044,0.013807,7.374048,25,2,4,20,8,28,0,9,3,32.866373,-117.254112,-37.774000,-2455690.945111,-4767178.013445,3441499.833076,13.569590,33.586700,44.249935,74.018990,41.243652,-179.904556,0.747546,0.563143,-0.281712,0.211382,133,32.866372,-117.254093,-39.701530,-2455688.708412,-4767177.530948,3441498.799196,5.868679
3250299903209,3256126257000,1422734926224785920,3256126257000,224795000,25,2,4,20,8,28,224,16,23.379999,101.717003,0.154857,0.551817,-0.062280,6.457188,0.035245,7.367146,25,2,4,20,8,28,0,9,3,32.866373,-117.254112,-37.774000,-2455690.945111,-4767178.013445,3441499.833076,13.569590,33.586700,44.249935,74.019882,41.243069,-179.903381,0.747545,0.563147,-0.281712,0.211374,133,32.866372,-117.254093,-39.700332,-2455688.704171,-4767177.533967,3441498.800257,5.870866
3250326305691,3256151257000,1422734926249786112,3256151257000,249795000,25,2,4,20,8,28,249,16,23.379999,101.729004,0.155323,0.551087,-0.064167,6.464710,-0.002668,7.357805,25,2,4,20,8,28,199,9,3,32.866373,-117.254113,-37.821000,-2455690.955111,-4767177.973445,3441499.793076,13.573996,33.589035,44.158173,74.021461,41.243183,-179.901901,0.747540,0.563154,-0.281717,0.211369,43141,32.866372,-117.254094,-39.695500,-2455688.754347,-4767177.519798,3441498.793091,5.872620
3250350570376,3256176262000,1422734926274790912,3256176262000,274800000,25,2,4,20,8,28,274,0,23.379999,101.729004,0.155084,0.550364,-0.063917,6.437901,0.012340,7.368589,25,2,4,20,8,28,199,9,3,32.866373,-117.254113,-37.821000,-2455690.955111,-4767177.973445,3441499.793076,13.573996,33.589035,44.158173,74.022667,41.244514,-179.900131,0.747534,0.563155,-0.281733,0.211367,43141,32.866372,-117.254094,-39.694099,-2455688.750452,-4767177.522894,3441498.794174,5.856274
3250375885265,3256201257000,1422734926299785984,3256201257000,299795000,25,2,4,20,8,28,299,16,23.379999,101.729004,0.154854,0.551090,-0.062980,6.468188,-0.003163,7.393710,25,2,4,20,8,28,199,9,3,32.866373,-117.254113,-37.821000,-2455690.955111,-4767177.973445,3441499.793076,13.573996,33.589035,44.158173,74.022827,41.243759,-179.898560,0.747538,0.563154,-0.281735,0.211353,2181,32.866372,-117.254094,-39.692840,-2455688.746427,-4767177.525818,3441498.795324,5.858437
3250401184431,3256226257000,1422734926324786176,3256226257000,324795000,25,2,4,20,8,28,324,16,23.379999,101.717003,0.154175,0.551788,-0.064655,6.450764,0.005938,7.356497,25,2,4,20,8,28,199,9,3,32.866373,-117.254113,-37.821000,-2455690.955111,-4767177.973445,3441499.793076,13.573996,33.589035,44.158173,74.021851,41.243290,-179.900513,0.747540,0.563153,-0.281724,0.211361,2181,32.866372,-117.254094,-39.691682,-2455688.742245,-4767177.528754,3441498.796380,5.860606
3250425440672,3256251257000,1422734926349786112,3256251257000,349795000,25,2,4,20,8,28,349,16,23.379999,101.729004,0.154616,0.549877,-0.063908,6.463208,0.008482,7.340955,25,2,4,20,8,28,199,9,3,32.866373,-117.254113,-37.821000,-2455690.955111,-4767177.973445,3441499.793076,13.573996,33.589035,44.158173,74.021019,41.241898,-179.901794,0.747546,0.563153,-0.281710,0.211361,41093,32.866372,-117.254094,-39.690421,-2455688.738164,-4767177.531737,3441498.797493,5.862780
3250450746876,3256276257000,1422734926374786048,3256276257000,374795000,25,2,4,20,8,28,374,0,23.379999,101.717003,0.154839,0.549406,-0.063187,6.451637,0.023569,7.378292,25,2,4,20,8,28,199,9,3,32.866373,-117.254113,-37.821000,-2455690.955111,-4767177.973445,3441499.793076,13.573996,33.589035,44.158173,74.022751,41.243233,-179.900787,0.747536,0.563160,-0.281721,0.211365,41093,32.866372,-117.254094,-39.689203,-2455688.734123,-4767177.534700,3441498.798524,5.864960
3250476058561,3256301257000,1422734926399785984,3256301257000,399795000,25,2,4,20,8,28,399,16,23.370001,101.725006,0.154624,0.551571,-0.062513,6.487468,0.020368,7.367908,25,2,4,20,8,28,199,9,3,32.866373,-117.254113,-37.821000,-2455690.955111,-4767177.973445,3441499.793076,13.573996,33.589035,44.158173,74.025574,41.244461,-179.898300,0.747523,0.563169,-0.281736,0.211362,133,32.866372,-117.254094,-39.687951,-2455688.729997,-4767177.537669,3441498.799672,5.867145
3250500322505,3256326257000,1422734926424786176,3256326257000,424795000,25,2,4,20,8,28,424,16,23.389997,101.717003,0.155083,0.550609,-0.063446,6.437845,-0.002722,7.346529,25,2,4,20,8,28,199,9,3,32.866373,-117.254113,-37.821000,-2455690.955111,-4767177.973445,3441499.793076,13.573996,33.589035,44.158173,74.027229,41.244732,-179.895844,0.747519,0.563174,-0.281747,0.211351,133,32.866372,-117.254094,-39.686697,-2455688.725858,-4767177.540678,3441498.800775,5.869336
3250525620191,3256351256000,1422734926449785088,3256351256000,449794000,25,2,4,20,8,28,449,16,23.379999,101.729004,0.155330,0.552052,-0.063709,6.455679,-0.016893,7.359141,25,2,4,20,8,28,399,9,3,32.866373,-117.254114,-37.764000,-2455691.075111,-4767177.973445,3441499.823076,13.579046,33.592720,44.068398,74.028076,41.245605,-179.896301,0.747512,0.563179,-0.281748,0.211360,32901,32.866372,-117.254093,-39.685475,-2455688.721843,-4767177.543657,3441498.801774,5.871092
