systemTimeStamp,timeStartup,timeGps,timeSyncIn,timeGpsPps,utcYear,utcMonth,utcDay,utcHour,utcMinute,utcSecond,utcFracsec,imuStatus,temperature,pressure,magX,magY,magZ,accelX,accelY,accelZ,gps1UtcYear,gps1UtcMonth,gps1UtcDay,gps1UtcHour,gps1UtcMinute,gps1UtcSecond,gps1UtcFracsec,gnss1NumSats,gnss1Fix,gnss1PosLat,gnss1PosLon,gnss1PosAlt,gnss1PosEcefX,gnss1PosEcefY,gnss1PosEcefY,gnss1PosUncertaintyN,gnss1PosUncertaintyE,gnss1PosUncertaintyD,yaw,pitch,roll,quatX,quatY,quatZ,quatW,insStatus,lat,lon,alt,posEcefX,posEcefY,posEcefZ,posU
174573481818,180351257000,1421179521222201088,180351257000,222210000,25,1,17,20,5,7,223,16,26.099998,102.327003,0.795032,1.466275,3.806415,-1.114634,-2.651597,-9.939273,25,1,17,20,5,3,0,9,4,32.865384,-117.254187,-14.568000,-2455733.335110,-4767245.083444,3441420.273078,6.210784,6.272787,11.134053,-69.871086,1.976374,9.760621,-0.079574,0.034624,0.571696,-0.815863,133,32.865380,-117.254183,-15.684545,-2455732.784459,-4767244.689868,3441419.407522,1.540206
174597648485,180376257000,1421179521247201024,180376257000,247210000,25,1,17,20,5,7,248,0,26.080000,102.323006,0.800795,1.463956,3.807166,-0.322804,-2.624480,-10.051720,25,1,17,20,5,3,200,9,4,32.865382,-117.254186,-14.522000,-2455733.305110,-4767245.273444,3441420.113078,6.211930,6.315558,11.166988,-71.352539,2.209608,9.565655,-0.078924,0.033010,0.582372,-0.808408,133,32.865380,-117.254183,-15.686949,-2455732.780586,-4767244.703723,3441419.386774,1.541580
174621815596,180401257000,1421179521272200960,180401257000,272210000,25,1,17,20,5,7,273,16,26.080000,102.323006,0.801712,1.461789,3.805301,0.700363,-2.575198,-10.413181,25,1,17,20,5,3,200,9,4,32.865382,-117.254186,-14.522000,-2455733.305110,-4767245.273444,3441420.113078,6.211930,6.315558,11.166988,-72.701866,2.826615,9.250398,-0.079497,0.027982,0.592221,-0.801356,32901,32.865380,-117.254183,-15.648211,-2455732.790459,-4767244.748112,3441419.390080,1.534510
174647032096,180426257000,1421179521297200896,180426257000,297210000,25,1,17,20,5,7,298,16,26.080000,102.323006,0.803084,1.459396,3.804393,1.272087,-2.409303,-10.284227,25,1,17,20,5,3,200,9,4,32.865382,-117.254186,-14.522000,-2455733.305110,-4767245.273444,3441420.113078,6.211930,6.315558,11.166988,-73.962280,3.299967,8.938454,-0.079490,0.023924,0.601267,-0.794725,32901,32.865379,-117.254183,-15.649574,-2455732.786845,-4767244.762077,3441419.370915,1.536206
174672216763,180451257000,1421179521322201088,180451257000,322210000,25,1,17,20,5,7,323,16,26.099998,102.327003,0.806797,1.459435,3.802965,1.061206,-2.186918,-9.619075,25,1,17,20,5,3,200,9,4,32.865382,-117.254186,-14.522000,-2455733.305110,-4767245.273444,3441420.113078,6.211930,6.315558,11.166988,-75.128410,3.458021,8.699646,-0.078435,0.022371,0.609431,-0.788632,133,32.865379,-117.254183,-15.650549,-2455732.782917,-4767244.776010,3441419.352730,1.537913
174697441244,180476257000,1421179521347201024,180476257000,347210000,25,1,17,20,5,7,348,0,26.099998,102.327003,0.810491,1.458284,3.802983,0.515881,-1.929231,-8.864537,25,1,17,20,5,3,200,9,4,32.865382,-117.254186,-14.522000,-2455733.305110,-4767245.273444,3441420.113078,6.211930,6.315558,11.166988,-76.142807,3.519550,8.510152,-0.077268,0.021623,0.616447,-0.783298,133,32.865379,-117.254183,-15.651469,-2455732.778533,-4767244.790251,3441419.334549,1.539633
174721744263,180501257000,1421179521372200960,180501257000,372210000,25,1,17,20,5,7,373,16,26.090000,102.323006,0.812577,1.457579,3.801569,0.591135,-1.852210,-8.546093,25,1,17,20,5,3,200,9,4,32.865382,-117.254186,-14.522000,-2455733.305110,-4767245.273444,3441420.113078,6.211930,6.315558,11.166988,-76.984039,3.780988,8.330567,-0.077298,0.019431,0.622299,-0.778711,32901,32.865379,-117.254183,-15.652855,-2455732.773917,-4767244.803947,3441419.316421,1.541364
174747080818,180526257000,1421179521397201152,180526257000,397210000,25,1,17,20,5,7,398,16,26.099998,102.327003,0.810260,1.457067,3.801343,0.919692,-1.805822,-8.455797,25,1,17,20,5,3,200,9,4,32.865382,-117.254186,-14.522000,-2455733.305110,-4767245.273444,3441420.113078,6.211930,6.315558,11.166988,-77.702133,4.293395,8.111263,-0.078479,0.015236,0.627351,-0.774622,32901,32.865379,-117.254183,-15.654900,-2455732.768958,-4767244.816982,3441419.298230,1.543106
174772668485,180551257000,1421179521422200832,180551257000,422210000,25,1,17,20,5,7,423,16,26.099998,102.315002,0.810235,1.455641,3.803507,1.410754,-1.671951,-8.312231,25,1,17,20,5,3,200,9,4,32.865382,-117.254186,-14.522000,-2455733.305110,-4767245.273444,3441420.113078,6.211930,6.315558,11.166988,-78.356140,4.841124,7.848781,-0.079625,0.010535,0.631930,-0.770853,133,32.865378,-117.254183,-15.657648,-2455732.763512,-4767244.829399,3441419.279943,1.544860
174797015892,180576257000,1421179521447201024,180576257000,447210000,25,1,17,20,5,7,448,0,26.085001,102.315002,0.810693,1.453458,3.800454,1.563221,-1.666468,-7.923860,25,1,17,20,5,3,400,9,4,32.865380,-117.254184,-14.513000,-2455733.265110,-4767245.413444,3441419.963078,6.206876,6.369588,11.175346,-79.004616,5.252861,7.565504,-0.079937,0.006642,0.636389,-0.767186,133,32.865378,-117.254182,-15.661188,-2455732.757259,-4767244.841265,3441419.261523,1.546272
174821890022,180601257000,1421179521472201216,180601257000,472210000,25,1,17,20,5,7,473,16,26.099998,102.327003,0.809300,1.452471,3.799760,1.202018,-1.725146,-7.848648,25,1,17,20,5,3,400,9,4,32.865380,-117.254184,-14.513000,-2455733.265110,-4767245.413444,3441419.963078,6.206876,6.369588,11.175346,-79.673431,5.523921,7.268087,-0.079420,0.003630,0.640916,-0.763482,133,32.865378,-117.254182,-15.639190,-2455732.747440,-4767244.887017,3441419.246066,1.539669
174847259948,180626257000,1421179521497200896,180626257000,497210000,25,1,17,20,5,7,498,16,26.099998,102.327003,0.811823,1.449128,3.798391,1.162729,-1.293586,-7.501941,25,1,17,20,5,3,400,9,4,32.865380,-117.254184,-14.513000,-2455733.265110,-4767245.413444,3441419.963078,6.206876,6.369588,11.175346,-80.363976,5.779947,6.949248,-0.078715,0.000606,0.645547,-0.759653,32901,32.865378,-117.254182,-15.644763,-2455732.739333,-4767244.897562,3441419.227034,1.541423
174872559855,180651257000,1421179521522201088,180651257000,522210000,25,1,17,20,5,7,523,16,26.099998,102.327003,0.812506,1.447938,3.798650,1.583879,-1.384355,-7.753845,25,1,17,20,5,3,400,9,4,32.865380,-117.254184,-14.513000,-2455733.265110,-4767245.413444,3441419.963078,6.206876,6.369588,11.175346,-81.113762,6.057964,6.692863,-0.078586,-0.002177,0.650531,-0.755400,32901,32.865378,-117.254182,-15.651596,-2455732.730516,-4767244.907138,3441419.207513,1.543189
174896805263,180676257000,1421179521547201024,180676257000,547210000,25,1,17,20,5,7,548,0,26.099998,102.327003,0.813878,1.446520,3.799387,2.008863,-1.267505,-7.681395,25,1,17,20,5,3,400,9,4,32.865380,-117.254184,-14.513000,-2455733.265110,-4767245.413444,3441419.963078,6.206876,6.369588,11.175346,-81.951920,6.251017,6.466286,-0.078213,-0.004171,0.656046,-0.750645,133,32.865377,-117.254182,-15.659584,-2455732.720712,-4767244.915922,3441419.187656,1.544969
174922097318,180701257000,1421179521572200960,180701257000,572210000,25,1,17,20,5,7,573,16,26.099998,102.327003,0.815739,1.447265,3.799135,1.811023,-1.304615,-8.040154,25,1,17,20,5,3,400,9,4,32.865380,-117.254184,-14.513000,-2455733.265110,-4767245.413444,3441419.963078,6.206876,6.369588,11.175346,-82.859810,6.256382,6.254681,-0.076898,-0.004808,0.661965,-0.745564,133,32.865377,-117.254182,-15.668676,-2455732.709804,-4767244.924084,3441419.167403,1.546764
174947364689,180726257000,1421179521597201152,180726257000,597210000,25,1,17,20,5,7,598,16,26.099998,102.327003,0.820828,1.445636,3.797261,1.703853,-1.177485,-8.318277,25,1,17,20,5,3,400,9,4,32.865380,-117.254184,-14.513000,-2455733.265110,-4767245.413444,3441419.963078,6.206876,6.369588,11.175346,-83.803131,6.082410,6.025188,-0.074445,-0.004383,0.668066,-0.740356,32901,32.865377,-117.254181,-15.678691,-2455732.697984,-4767244.931663,3441419.146897,1.548573
174971542281,180751256000,1421179521622200064,180751256000,622209000,25,1,17,20,5,7,623,16,26.099998,102.327003,0.825713,1.447376,3.796040,1.646626,-1.161040,-8.717048,25,1,17,20,5,3,400,9,4,32.865380,-117.254184,-14.513000,-2455733.265110,-4767245.413444,3441419.963078,6.206876,6.369588,11.175346,-84.774124,5.771674,5.815681,-0.071318,-0.002983,0.674300,-0.734999,32901,32.865377,-117.254181,-15.689467,-2455732.685390,-4767244.938771,3441419.126186,1.550398
174996728911,180776257000,1421179521647201024,180776257000,647210000,25,1,17,20,5,7,648,0,26.099998,102.315002,0.832884,1.447730,3.797932,1.399570,-1.160258,-9.093351,25,1,17,20,5,3,600,9,4,32.865379,-117.254183,-14.536000,-2455733.175110,-4767245.533444,3441419.823078,6.202598,6.421605,11.199727,-85.804512,5.298272,5.670532,-0.067620,-0.000178,0.680865,-0.729281,133,32.865377,-117.254181,-15.700777,-2455732.672225,-4767244.945572,3441419.105319,1.551869
175022145133,180801257000,1421179521672200960,180801257000,672210000,25,1,17,20,5,7,673,16,26.099998,102.315002,0.841240,1.449279,3.796951,1.266211,-1.141871,-9.195222,25,1,17,20,5,3,600,9,4,32.865379,-117.254183,-14.536000,-2455733.175110,-4767245.533444,3441419.823078,6.202598,6.421605,11.199727,-86.908783,4.576045,5.629705,-0.063046,0.004803,0.687823,-0.723120,133,32.865377,-117.254181,-15.680274,-2455732.662403,-4767244.977798,3441419.105719,1.545491
175046680040,180826257000,1421179521697200896,180826257000,697210000,25,1,17,20,5,7,698,16,26.105000,102.331001,0.851460,1.452298,3.796181,1.276133,-1.264253,-9.378014,25,1,17,20,5,3,600,9,4,32.865379,-117.254183,-14.536000,-2455733.175110,-4767245.533444,3441419.823078,6.202598,6.421605,11.199727,-88.042442,3.497348,5.680745,-0.056796,0.012504,0.694835,-0.716814,32901,32.865377,-117.254181,-15.692134,-2455732.648252,-4767244.984317,3441419.084924,1.547318
175072281929,180851257000,1421179521722201088,180851257000,722210000,25,1,17,20,5,7,723,16,26.099998,102.315002,0.865882,1.457272,3.792286,1.298528,-1.157739,-9.587016,25,1,17,20,5,3,600,9,4,32.865379,-117.254183,-14.536000,-2455733.175110,-4767245.533444,3441419.823078,6.202598,6.421605,11.199727,-89.169678,1.985607,5.795947,-0.048150,0.023160,0.701586,-0.710579,32901,32.865376,-117.254181,-15.704168,-2455732.633632,-4767244.990745,3441419.064268,1.549160
175096616855,180876257000,1421179521747201024,180876257000,747210000,25,1,17,20,5,7,748,0,26.099998,102.315002,0.883070,1.462547,3.791236,0.365040,-0.837130,-10.178466,25,1,17,20,5,3,600,9,4,32.865379,-117.254183,-14.536000,-2455733.175110,-4767245.533444,3441419.823078,6.202598,6.421605,11.199727,-90.326340,0.035920,6.112711,-0.037816,0.037588,0.708121,-0.704075,133,32.865376,-117.254180,-15.716218,-2455732.618453,-4767244.997328,3441419.043763,1.551018
175121973985,180901257000,1421179521772200960,180901257000,772210000,25,1,17,20,5,7,773,16,26.105000,102.331001,0.900778,1.472621,3.787964,-0.871904,-1.624156,-11.069031,25,1,17,20,5,3,600,9,4,32.865379,-117.254183,-14.536000,-2455733.175110,-4767245.533444,3441419.823078,6.202598,6.421605,11.199727,-91.564018,-2.411856,6.870365,-0.026722,0.057585,0.714366,-0.696887,133,32.865376,-117.254180,-15.727914,-2455732.603283,-4767245.004313,3441419.023351,1.552892
175147282892,180926257000,1421179521797200896,180926257000,797210000,25,1,17,20,5,7,798,16,26.105000,102.331001,0.923341,1.483016,3.786586,-1.920270,-2.433275,-10.838580,25,1,17,20,5,3,600,9,4,32.865379,-117.254183,-14.536000,-2455733.175110,-4767245.533444,3441419.823078,6.202598,6.421605,11.199727,-92.956161,-5.304970,8.000406,-0.014513,0.082320,0.720346,-0.688559,32901,32.865376,-117.254180,-15.738774,-2455732.588761,-4767245.011685,3441419.003488,1.554778
175171506874,180951257000,1421179521822201088,180951257000,822210000,25,1,17,20,5,7,823,16,26.099998,102.327003,0.947108,1.497015,3.782767,-3.098697,-3.152830,-10.451361,25,1,17,20,5,3,600,9,4,32.865379,-117.254183,-14.536000,-2455733.175110,-4767245.533444,3441419.823078,6.202598,6.421605,11.199727,-94.522720,-8.278811,9.400722,-0.002630,0.108851,0.726063,-0.678953,32901,32.865376,-117.254180,-15.748760,-2455732.575177,-4767245.019134,3441418.984465,1.556676
175196778411,180976257000,1421179521847201024,180976257000,847210000,25,1,17,20,5,7,848,0,26.107500,102.327003,0.971134,1.513904,3.778898,-3.083623,-3.516254,-9.612319,25,1,17,20,5,3,800,9,4,32.865377,-117.254181,-14.512000,-2455733.075110,-4767245.703444,3441419.713078,6.169972,6.452755,11.232764,-96.097382,-10.886084,10.819379,0.007492,0.132927,0.731084,-0.669171,32901,32.865376,-117.254180,-15.757977,-2455732.562586,-4767245.026607,3441418.966123,1.558199
175222160077,181001257000,1421179521872200960,181001257000,872210000,25,1,17,20,5,7,873,16,26.104998,102.315002,0.989587,1.527568,3.772475,-3.023824,-3.811988,-10.316059,25,1,17,20,5,3,800,9,4,32.865377,-117.254181,-14.512000,-2455733.075110,-4767245.703444,3441419.713078,6.169972,6.452755,11.232764,-97.629036,-13.193465,12.223952,0.016318,0.154817,0.735295,-0.659626,133,32.865376,-117.254179,-15.722532,-2455732.544717,-4767245.075808,3441418.976405,1.550469
175246449522,181026257000,1421179521897201152,181026257000,897210000,25,1,17,20,5,7,898,16,26.109999,102.331001,1.010123,1.541994,3.767463,-3.913781,-4.633937,-9.636335,25,1,17,20,5,3,800,9,4,32.865377,-117.254181,-14.512000,-2455733.075110,-4767245.703444,3441419.713078,6.169972,6.452755,11.232764,-99.329330,-15.445656,13.878266,0.024195,0.177601,0.739314,-0.649067,133,32.865375,-117.254179,-15.730202,-2455732.533820,-4767245.082658,3441418.960570,1.552326
175272778096,181051257000,1421179521922200832,181051257000,922210000,25,1,17,20,5,7,923,16,26.107500,102.319008,1.028842,1.557319,3.757684,-3.644873,-4.281423,-8.987848,25,1,17,20,5,3,800,9,4,32.865377,-117.254181,-14.512000,-2455733.075110,-4767245.703444,3441419.713078,6.169972,6.452755,11.232764,-101.256149,-17.593599,15.675958,0.031627,0.200287,0.743584,-0.637155,32901,32.865375,-117.254179,-15.737108,-2455732.523952,-4767245.089079,3441418.946003,1.554192
175297023651,181076257000,1421179521947201024,181076257000,947210000,25,1,17,20,5,7,948,0,26.107498,102.315002,1.047581,1.576759,3.751160,-3.492799,-4.073765,-8.672205,25,1,17,20,5,3,800,9,4,32.865377,-117.254181,-14.512000,-2455733.075110,-4767245.703444,3441419.713078,6.169972,6.452755,11.232764,-103.147850,-19.611032,17.366257,0.039431,0.221175,0.747139,-0.625548,32901,32.865375,-117.254179,-15.743623,-2455732.514684,-4767245.095105,3441418.932274,1.556068
175322477948,181101257000,1421179521972201216,181101257000,972210000,25,1,17,20,5,7,973,16,26.105000,102.331001,1.063717,1.589176,3.743096,-4.220356,-4.809271,-9.025723,25,1,17,20,5,3,800,9,4,32.865377,-117.254181,-14.512000,-2455733.075110,-4767245.703444,3441419.713078,6.169972,6.452755,11.232764,-104.919853,-21.430136,18.929428,0.046969,0.239861,0.749867,-0.614785,133,32.865375,-117.254179,-15.749835,-2455732.505735,-4767245.100792,3441418.919345,1.557955
175346972503,181126257000,1421179521997200896,181126257000,997210000,25,1,17,20,5,7,998,16,26.109999,102.319008,1.076607,1.601550,3.735270,-4.862482,-4.634356,-8.074236,25,1,17,20,5,3,800,9,4,32.865377,-117.254181,-14.512000,-2455733.075110,-4767245.703444,3441419.713078,6.169972,6.452755,11.232764,-106.686852,-22.751776,20.404253,0.052066,0.255197,0.753176,-0.604061,133,32.865375,-117.254179,-15.755446,-2455732.497365,-4767245.106292,3441418.907369,1.559855
175372230614,181151257000,1421179522022201088,181151257000,22212000,25,1,17,20,5,8,23,16,26.109999,102.319008,1.086003,1.613671,3.731490,-4.823192,-4.153299,-7.976863,25,1,17,20,5,3,800,9,4,32.865377,-117.254181,-14.512000,-2455733.075110,-4767245.703444,3441419.713078,6.169972,6.452755,11.232764,-108.364059,-23.508289,21.688019,0.054446,0.266443,0.757272,-0.593787,32901,32.865375,-117.254179,-15.760696,-2455732.489923,-4767245.111267,3441418.896127,1.561765
175396438281,181176257000,1421179522047202816,181176257000,47212000,25,1,17,20,5,8,48,0,26.110001,102.319008,1.091910,1.623326,3.726093,-4.026332,-4.040680,-8.212370,25,1,17,20,5,4,0,9,4,32.865376,-117.254180,-14.488000,-2455733.015110,-4767245.823444,3441419.633078,6.132363,6.467976,11.279407,-109.825157,-23.887184,22.722439,0.055237,0.274334,0.761440,-0.584721,32901,32.865375,-117.254179,-15.765737,-2455732.483144,-4767245.116002,3441418.885127,1.563299
175423092040,181201257000,1421179522072203008,181201257000,72212000,25,1,17,20,5,8,73,16,26.109999,102.319008,1.099203,1.634226,3.723525,-3.767783,-4.148763,-8.042299,25,1,17,20,5,4,0,9,4,32.865376,-117.254180,-14.488000,-2455733.015110,-4767245.823444,3441419.633078,6.132363,6.467976,11.279407,-111.152512,-24.052685,23.570417,0.055324,0.280084,0.765711,-0.576350,133,32.865375,-117.254179,-15.681644,-2455732.521904,-4767245.187413,3441418.914355,1.553535
175447669633,181226257000,1421179522097202944,181226257000,97212000,25,1,17,20,5,8,98,16,26.109999,102.331001,1.104394,1.642687,3.720287,-3.867870,-3.654022,-8.234612,25,1,17,20,5,4,0,9,4,32.865376,-117.254180,-14.488000,-2455733.015110,-4767245.823444,3441419.633078,6.132363,6.467976,11.279407,-112.488403,-24.115660,24.349539,0.055176,0.284937,0.770304,-0.567802,133,32.865375,-117.254178,-15.686312,-2455732.515403,-4767245.191969,3441418.904092,1.555382
175472602318,181251257000,1421179522122202880,181251257000,122212000,25,1,17,20,5,8,123,16,26.109999,102.319008,1.108407,1.650675,3.719909,-3.832026,-3.026919,-8.400809,25,1,17,20,5,4,0,9,4,32.865376,-117.254180,-14.488000,-2455733.015110,-4767245.823444,3441419.633078,6.132363,6.467976,11.279407,-113.849182,-24.113314,25.158915,0.054592,0.289732,0.774971,-0.559013,32901,32.865375,-117.254178,-15.691029,-2455732.508794,-4767245.196560,3441418.893767,1.557243
175496930540,181276257000,1421179522147203072,181276257000,147212000,25,1,17,20,5,8,148,0,26.109999,102.319008,1.113821,1.659639,3.719039,-3.733095,-3.622708,-8.262802,25,1,17,20,5,4,0,9,4,32.865376,-117.254180,-14.488000,-2455733.015110,-4767245.823444,3441419.633078,6.132363,6.467976,11.279407,-115.167778,-24.049669,26.057364,0.053147,0.294941,0.779222,-0.550453,32901,32.865374,-117.254178,-15.695823,-2455732.501933,-4767245.201424,3441418.883103,1.559117
175522356596,181301257000,1421179522172202752,181301257000,172212000,25,1,17,20,5,8,173,16,26.109999,102.319008,1.117173,1.669272,3.715068,-3.544803,-4.107604,-8.176949,25,1,17,20,5,4,0,9,4,32.865376,-117.254180,-14.488000,-2455733.015110,-4767245.823444,3441419.633078,6.132363,6.467976,11.279407,-116.527390,-23.920788,26.971331,0.051386,0.300030,0.783654,-0.541505,133,32.865374,-117.254178,-15.700653,-2455732.494812,-4767245.206434,3441418.872356,1.561005
175547653373,181326257000,1421179522197202944,181326257000,197212000,25,1,17,20,5,8,198,16,26.109999,102.319008,1.120761,1.680368,3.713211,-3.839463,-3.981559,-7.989758,25,1,17,20,5,4,0,9,4,32.865376,-117.254180,-14.488000,-2455733.015110,-4767245.823444,3441419.633078,6.132363,6.467976,11.279407,-118.031799,-23.753393,27.837627,0.050076,0.304647,0.788838,-0.531430,133,32.865374,-117.254178,-15.705478,-2455732.487418,-4767245.211465,3441418.861784,1.562907
175573044318,181351257000,1421179522222203136,181351257000,222212000,25,1,17,20,5,8,223,16,26.109999,102.319008,1.123869,1.689774,3.711385,-3.923735,-4.020027,-7.654983,25,1,17,20,5,4,0,9,4,32.865376,-117.254180,-14.488000,-2455733.015110,-4767245.823444,3441419.633078,6.132363,6.467976,11.279407,-119.677612,-23.647478,28.781548,0.049380,0.310046,0.794131,-0.520374,32901,32.865374,-117.254178,-15.710393,-2455732.479880,-4767245.216520,3441418.851114,1.564822
175597253281,181376257000,1421179522247202816,181376257000,247212000,25,1,17,20,5,8,248,0,26.114998,102.323006,1.128636,1.702559,3.708309,-4.068813,-4.501311,-7.401386,25,1,17,20,5,4,200,9,4,32.865376,-117.254179,-14.425000,-2455733.005110,-4767245.913444,3441419.623078,6.096251,6.484622,11.348866,-121.519806,-23.564449,29.851368,0.049000,0.316389,0.799686,-0.507937,32901,32.865374,-117.254178,-15.640929,-2455732.481118,-4767245.286644,3441418.881752,1.566363
175622549021,181401257000,1421179522272203008,181401257000,272212000,25,1,17,20,5,8,273,16,26.120001,102.331001,1.134360,1.717259,3.702587,-4.201786,-4.624310,-7.377858,25,1,17,20,5,4,200,9,4,32.865376,-117.254179,-14.425000,-2455733.005110,-4767245.913444,3441419.623078,6.096251,6.484622,11.348866,-123.540054,-23.496313,30.948032,0.049333,0.322962,0.805636,-0.494178,133,32.865374,-117.254178,-15.645848,-2455732.473379,-4767245.291892,3441418.870952,1.557316
175647934077,181426257000,1421179522297202944,181426257000,297212000,25,1,17,20,5,8,298,16,26.119997,102.323006,1.140742,1.728612,3.698109,-4.178016,-4.978676,-7.278395,25,1,17,20,5,4,200,9,4,32.865376,-117.254179,-14.425000,-2455733.005110,-4767245.913444,3441419.623078,6.096251,6.484622,11.348866,-125.697601,-23.426008,32.043449,0.050294,0.329517,0.811865,-0.479338,133,32.865374,-117.254177,-15.650915,-2455732.465954,-4767245.296883,3441418.860011,1.559183
175672126299,181451257000,1421179522322202880,181451257000,322212000,25,1,17,20,5,8,323,16,26.115000,102.319008,1.145518,1.740409,3.691725,-4.026612,-5.654791,-7.644558,25,1,17,20,5,4,200,9,4,32.865376,-117.254179,-14.425000,-2455733.005110,-4767245.913444,3441419.623078,6.096251,6.484622,11.348866,-127.887169,-23.402550,33.059090,0.052291,0.335685,0.817992,-0.464188,133,32.865374,-117.254177,-15.655962,-2455732.458798,-4767245.301744,3441418.849094,1.561061
175697344188,181476257000,1421179522347203072,181476257000,347212000,25,1,17,20,5,8,348,0,26.125000,102.319008,1.151005,1.754629,3.686486,-3.896644,-5.797577,-7.858506,25,1,17,20,5,4,200,9,4,32.865376,-117.254179,-14.425000,-2455733.005110,-4767245.913444,3441419.623078,6.096251,6.484622,11.348866,-130.068268,-23.535887,33.948414,0.056205,0.341431,0.823711,-0.449183,32901,32.865374,-117.254177,-15.660660,-2455732.451916,-4767245.306595,3441418.838638,1.562950
175722862892,181501257000,1421179522372202752,181501257000,372212000,25,1,17,20,5,8,373,16,26.119997,102.323006,1.157627,1.764748,3.677989,-4.434358,-5.553810,-7.786265,25,1,17,20,5,4,200,9,4,32.865376,-117.254179,-14.425000,-2455733.005110,-4767245.913444,3441419.623078,6.096251,6.484622,11.348866,-132.336990,-23.885311,34.887321,0.062085,0.348039,0.828718,-0.433866,32901,32.865374,-117.254177,-15.664928,-2455732.445178,-4767245.311583,3441418.828688,1.564851
175747371633,181526257000,1421179522397202944,181526257000,397212000,25,1,17,20,5,8,398,16,26.119997,102.336006,1.164738,1.777522,3.669686,-4.864645,-5.763136,-7.172574,25,1,17,20,5,4,200,9,4,32.865376,-117.254179,-14.425000,-2455733.005110,-4767245.913444,3441419.623078,6.096251,6.484622,11.348866,-134.721924,-24.391037,35.979439,0.069240,0.355956,0.832903,-0.418060,133,32.865374,-117.254177,-15.668749,-2455732.438759,-4767245.316877,3441418.818911,1.566763
175772772577,181551257000,1421179522422202880,181551257000,422212000,25,1,17,20,5,8,423,16,26.115000,102.306007,1.171148,1.787123,3.656922,-4.884498,-5.757373,-6.712723,25,1,17,20,5,4,200,9,4,32.865376,-117.254179,-14.425000,-2455733.005110,-4767245.913444,3441419.623078,6.096251,6.484622,11.348866,-137.061829,-24.832445,37.127846,0.075887,0.363943,0.836508,-0.402543,133,32.865374,-117.254177,-15.672225,-2455732.432972,-4767245.322273,3441418.809181,1.568686
175797000207,181576257000,1421179522447202816,181576257000,447212000,25,1,17,20,5,8,448,0,26.115000,102.323006,1.175720,1.801556,3.649779,-4.769159,-5.806892,-6.450453,25,1,17,20,5,4,400,9,4,32.865376,-117.254179,-14.399000,-2455732.975110,-4767245.943444,3441419.653078,5.997289,6.449579,11.455717,-139.080444,-24.969097,38.168968,0.079820,0.370504,0.839779,-0.388749,32901,32.865373,-117.254177,-15.675528,-2455732.427713,-4767245.327689,3441418.799371,1.570230
175822285632,181601257000,1421179522472203008,181601257000,472212000,25,1,17,20,5,8,473,16,26.109999,102.319008,1.177457,1.811646,3.645801,-4.259919,-5.911367,-6.199250,25,1,17,20,5,4,400,9,4,32.865376,-117.254179,-14.399000,-2455732.975110,-4767245.943444,3441419.653078,5.997289,6.449579,11.455717,-140.611420,-24.666506,39.048279,0.079512,0.375236,0.842833,-0.377503,32901,32.865374,-117.254177,-15.606456,-2455732.435193,-4767245.380680,3441418.848438,1.560527
175847664355,181626257000,1421179522497202944,181626257000,497212000,25,1,17,20,5,8,498,16,26.120001,102.306007,1.178017,1.821020,3.644213,-3.559871,-6.406433,-6.341147,25,1,17,20,5,4,400,9,4,32.865376,-117.254179,-14.399000,-2455732.975110,-4767245.943444,3441419.653078,5.997289,6.449579,11.455717,-141.688171,-23.993551,39.798450,0.075375,0.378632,0.845613,-0.368639,133,32.865373,-117.254177,-15.609707,-2455732.430754,-4767245.385685,3441418.838706,1.562389
175872826188,181651257000,1421179522522202880,181651257000,522212000,25,1,17,20,5,8,523,16,26.124998,102.323006,1.177893,1.831583,3.642366,-3.264719,-7.021339,-6.862020,25,1,17,20,5,4,400,9,4,32.865376,-117.254179,-14.399000,-2455732.975110,-4767245.943444,3441419.653078,5.997289,6.449579,11.455717,-142.574554,-23.168018,40.545452,0.069511,0.381921,0.848049,-0.360718,133,32.865373,-117.254177,-15.612997,-2455732.426497,-4767245.390254,3441418.829374,1.564262
175897035725,181676257000,1421179522547202816,181676257000,547212000,25,1,17,20,5,8,548,0,26.129999,102.323006,1.176591,1.842165,3.644561,-3.272817,-7.743910,-6.808866,25,1,17,20,5,4,400,9,4,32.865376,-117.254179,-14.399000,-2455732.975110,-4767245.943444,3441419.653078,5.997289,6.449579,11.455717,-143.472687,-22.334724,41.380737,0.063427,0.385947,0.850111,-0.352608,32901,32.865373,-117.254177,-15.615967,-2455732.422391,-4767245.394577,3441418.820864,1.566146
175922651003,181701257000,1421179522572203008,181701257000,572212000,25,1,17,20,5,8,573,16,26.129999,102.336006,1.174374,1.852473,3.644146,-3.346778,-8.539763,-6.991676,25,1,17,20,5,4,400,9,4,32.865376,-117.254179,-14.399000,-2455732.975110,-4767245.943444,3441419.653078,5.997289,6.449579,11.455717,-144.404099,-21.586935,42.281982,0.058015,0.390716,0.851702,-0.344354,32901,32.865373,-117.254177,-15.618307,-2455732.418773,-4767245.398701,3441418.813440,1.568044
175946994355,181726257000,1421179522597202944,181726257000,597212000,25,1,17,20,5,8,598,16,26.129999,102.323006,1.174262,1.863264,3.640632,-3.595134,-8.760036,-6.806807,25,1,17,20,5,4,400,9,4,32.865376,-117.254179,-14.399000,-2455732.975110,-4767245.943444,3441419.653078,5.997289,6.449579,11.455717,-145.368408,-20.950977,43.204384,0.053631,0.395931,0.852907,-0.336024,133,32.865373,-117.254176,-15.619640,-2455732.415520,-4767245.403458,3441418.806744,1.569952
175972246818,181751257000,1421179522622202880,181751257000,622212000,25,1,17,20,5,8,623,16,26.129999,102.336006,1.172979,1.873085,3.638086,-3.752742,-8.648122,-6.178225,25,1,17,20,5,4,400,9,4,32.865376,-117.254179,-14.399000,-2455732.975110,-4767245.943444,3441419.653078,5.997289,6.449579,11.455717,-146.302963,-20.360695,44.116013,0.049643,0.401245,0.853817,-0.327925,133,32.865373,-117.254176,-15.619970,-2455732.413598,-4767245.407541,3441418.801881,1.571876
175997519947,181776257000,1421179522647203072,181776257000,647212000,25,1,17,20,5,8,648,0,26.129999,102.336006,1.170537,1.884110,3.637659,-3.676151,-7.900091,-5.886341,25,1,17,20,5,4,600,9,4,32.865376,-117.254179,-14.386000,-2455732.995110,-4767245.933444,3441419.673078,5.927466,6.405478,11.573921,-147.120575,-19.769588,44.928486,0.045622,0.405941,0.854617,-0.320563,32901,32.865373,-117.254177,-15.575694,-2455732.447076,-4767245.444083,3441418.809459,1.564082
176021775336,181801257000,1421179522672202752,181801257000,672212000,25,1,17,20,5,8,673,16,26.129999,102.323006,1.171303,1.891328,3.636820,-3.781739,-7.188010,-5.357477,25,1,17,20,5,4,600,9,4,32.865376,-117.254179,-14.386000,-2455732.995110,-4767245.933444,3441419.673078,5.927466,6.405478,11.573921,-147.860260,-19.149817,45.671055,0.041380,0.410162,0.855404,-0.313591,32901,32.865373,-117.254177,-15.574832,-2455732.447641,-4767245.447692,3441418.805680,1.565971
176047092521,181826257000,1421179522697202944,181826257000,697212000,25,1,17,20,5,8,698,16,26.129999,102.323006,1.169064,1.899228,3.636209,-3.780443,-6.815802,-5.048331,25,1,17,20,5,4,600,9,4,32.865376,-117.254179,-14.386000,-2455732.995110,-4767245.933444,3441419.673078,5.927466,6.405478,11.573921,-148.558075,-18.529650,46.350143,0.037230,0.413982,0.856206,-0.306828,133,32.865373,-117.254177,-15.574119,-2455732.448781,-4767245.450974,3441418.801671,1.567870
176072536743,181851257000,1421179522722203136,181851257000,722212000,25,1,17,20,5,8,723,16,26.129999,102.323006,1.169394,1.908108,3.633441,-3.416203,-6.540882,-5.031701,25,1,17,20,5,4,600,9,4,32.865376,-117.254179,-14.386000,-2455732.995110,-4767245.933444,3441419.673078,5.927466,6.405478,11.573921,-149.284988,-17.879545,46.992260,0.033117,0.417524,0.857189,-0.299674,133,32.865373,-117.254177,-15.573836,-2455732.450571,-4767245.453716,3441418.797150,1.569778
176096908614,181876257000,1421179522747202816,181876257000,747212000,25,1,17,20,5,8,748,0,26.135000,102.327003,1.166944,1.918172,3.633031,-3.546114,-6.800446,-5.044120,25,1,17,20,5,4,600,9,4,32.865376,-117.254179,-14.386000,-2455732.995110,-4767245.933444,3441419.673078,5.927466,6.405478,11.573921,-150.046906,-17.230179,47.544502,0.029434,0.420442,0.858489,-0.292161,133,32.865373,-117.254177,-15.574112,-2455732.452776,-4767245.455878,3441418.792105,1.571696
176122643855,181901257000,1421179522772203008,181901257000,772212000,25,1,17,20,5,8,773,16,26.129999,102.323006,1.164441,1.922460,3.632245,-3.429625,-7.208145,-4.893864,25,1,17,20,5,4,600,9,4,32.865376,-117.254179,-14.386000,-2455732.995110,-4767245.933444,3441419.673078,5.927466,6.405478,11.573921,-150.761658,-16.642895,47.921379,0.026553,0.422205,0.860095,-0.285087,32901,32.865373,-117.254177,-15.574835,-2455732.455539,-4767245.457548,3441418.786516,1.573623
176147029299,181926257000,1421179522797202944,181926257000,797212000,25,1,17,20,5,8,798,16,26.139997,102.323006,1.163593,1.928916,3.629045,-3.348160,-7.718849,-5.160870,25,1,17,20,5,4,600,9,4,32.865376,-117.254179,-14.386000,-2455732.995110,-4767245.933444,3441419.673078,5.927466,6.405478,11.573921,-151.335831,-16.078707,48.095222,0.023859,0.422548,0.861983,-0.279051,32901,32.865373,-117.254177,-15.575846,-2455732.459055,-4767245.458715,3441418.780554,1.575560
176172326225,181951257000,1421179522822202880,181951257000,822212000,25,1,17,20,5,8,823,16,26.129999,102.323006,1.161060,1.931789,3.631611,-3.277687,-7.771378,-5.456911,25,1,17,20,5,4,600,9,4,32.865376,-117.254179,-14.386000,-2455732.995110,-4767245.933444,3441419.673078,5.927466,6.405478,11.573921,-151.752106,-15.538958,48.058620,0.021286,0.421399,0.864163,-0.274212,133,32.865373,-117.254177,-15.576874,-2455732.463395,-4767245.459525,3441418.774470,1.577508
176197624058,181976257000,1421179522847203072,181976257000,847212000,25,1,17,20,5,8,848,0,26.135000,102.327003,1.157829,1.935145,3.635595,-3.127127,-7.859185,-5.792625,25,1,17,20,5,4,800,9,4,32.865375,-117.254180,-14.266000,-2455733.085110,-4767246.053444,3441419.663078,5.977107,6.416649,11.719896,-152.034637,-15.049580,47.873447,0.018954,0.419236,0.866435,-0.270503,133,32.865372,-117.254177,-15.534855,-2455732.503067,-4767245.485492,3441418.788051,1.570371
176221901762,182001257000,1421179522872202752,182001257000,872212000,25,1,17,20,5,8,873,16,26.129999,102.323006,1.157599,1.935871,3.636533,-3.001073,-7.736301,-5.921282,25,1,17,20,5,4,800,9,4,32.865375,-117.254180,-14.266000,-2455733.085110,-4767246.053444,3441419.663078,5.977107,6.416649,11.719896,-152.241150,-14.630625,47.636837,0.017000,0.416800,0.868556,-0.267582,32901,32.865372,-117.254177,-15.535364,-2455732.509357,-4767245.486124,3441418.781784,1.572291
176247263447,182026257000,1421179522897202944,182026257000,897212000,25,1,17,20,5,8,898,16,26.129999,102.311005,1.156232,1.937282,3.634846,-2.790560,-7.512204,-5.984350,25,1,17,20,5,4,800,9,4,32.865375,-117.254180,-14.266000,-2455733.085110,-4767246.053444,3441419.663078,5.977107,6.416649,11.719896,-152.418854,-14.317035,47.453522,0.015625,0.414924,0.870202,-0.265220,32901,32.865372,-117.254177,-15.535690,-2455732.516134,-4767245.486721,3441418.775560,1.574224
176272358780,182051257000,1421179522922202880,182051257000,922212000,25,1,17,20,5,8,923,16,26.129999,102.323006,1.154624,1.939925,3.637177,-3.065586,-7.448766,-6.170579,25,1,17,20,5,4,800,9,4,32.865375,-117.254180,-14.266000,-2455733.085110,-4767246.053444,3441419.663078,5.977107,6.416649,11.719896,-152.656830,-14.031797,47.405678,0.014370,0.414113,0.871432,-0.262507,133,32.865372,-117.254177,-15.535852,-2455732.523372,-4767245.487288,3441418.769350,1.576170
176296710151,182076257000,1421179522947202816,182076257000,947212000,25,1,17,20,5,8,948,0,26.129997,102.323006,1.153712,1.941845,3.638095,-3.559596,-7.439506,-6.128754,25,1,17,20,5,4,800,9,4,32.865375,-117.254180,-14.266000,-2455733.085110,-4767246.053444,3441419.663078,5.977107,6.416649,11.719896,-152.950195,-13.728069,47.492462,0.012861,0.414297,0.872320,-0.259326,133,32.865372,-117.254177,-15.535807,-2455732.531131,-4767245.487988,3441418.762970,1.578129
176322178706,182101257000,1421179522972203008,182101257000,972212000,25,1,17,20,5,8,973,16,26.139997,102.323006,1.152113,1.944473,3.638526,-3.721787,-7.095675,-6.364789,25,1,17,20,5,4,800,9,4,32.865375,-117.254180,-14.266000,-2455733.085110,-4767246.053444,3441419.663078,5.977107,6.416649,11.719896,-153.169907,-13.369734,47.662140,0.010476,0.415050,0.872821,-0.256531,32901,32.865372,-117.254177,-15.535517,-2455732.539584,-4767245.488956,3441418.756183,1.580099
176346854651,182126257000,1421179522997202944,182126257000,997212000,25,1,17,20,5,8,998,16,26.150000,102.327003,1.150982,1.947587,3.638948,-3.539449,-7.214787,-6.308398,25,1,17,20,5,4,800,9,4,32.865375,-117.254180,-14.266000,-2455733.085110,-4767246.053444,3441419.663078,5.977107,6.416649,11.719896,-153.166489,-12.921158,47.912758,0.006404,0.416310,0.872668,-0.255138,32901,32.865372,-117.254177,-15.535013,-2455732.548594,-4767245.490349,3441418.748806,1.582080
176372187521,182151257000,1421179523022202880,182151257000,22214000,25,1,17,20,5,9,23,16,26.134998,102.323006,1.148233,1.950676,3.638896,-2.949258,-7.011158,-6.539264,25,1,17,20,5,4,800,9,4,32.865375,-117.254180,-14.266000,-2455733.085110,-4767246.053444,3441419.663078,5.977107,6.416649,11.719896,-152.870483,-12.390695,48.255939,0.000427,0.418153,0.871649,-0.255687,133,32.865372,-117.254177,-15.534333,-2455732.558124,-4767245.492111,3441418.740881,1.584072
176397497799,182176257000,1421179523047204608,182176257000,47214000,25,1,17,20,5,9,48,0,26.129997,102.311005,1.143620,1.953759,3.641222,-2.552033,-6.954410,-6.594306,25,1,17,20,5,5,0,9,4,32.865375,-117.254180,-14.204000,-2455733.165110,-4767246.093444,3441419.673078,6.049435,6.437157,11.879957,-152.373779,-11.848204,48.763996,-0.006749,0.421183,0.869576,-0.257676,133,32.865372,-117.254177,-15.480866,-2455732.552380,-4767245.546669,3441418.768408,1.575756
176421778262,182201257000,1421179523072204800,182201257000,72214000,25,1,17,20,5,9,73,16,26.140001,102.315002,1.142693,1.956676,3.646400,-2.300864,-6.901618,-6.270155,25,1,17,20,5,5,0,9,4,32.865375,-117.254180,-14.204000,-2455733.165110,-4767246.093444,3441419.673078,6.049435,6.437157,11.879957,-151.707870,-11.354300,49.437248,-0.014561,0.425454,0.866397,-0.261024,32901,32.865372,-117.254177,-15.479844,-2455732.561524,-4767245.549238,3441418.760274,1.577700
176446462799,182226257000,1421179523097204992,182226257000,97214000,25,1,17,20,5,9,98,16,26.150000,102.315002,1.140630,1.959545,3.647779,-1.936301,-6.922102,-6.148407,25,1,17,20,5,5,0,9,4,32.865375,-117.254180,-14.204000,-2455733.165110,-4767246.093444,3441419.673078,6.049435,6.437157,11.879957,-150.860428,-10.916634,50.243546,-0.022959,0.430693,0.862159,-0.265815,32901,32.865372,-117.254177,-15.478978,-2455732.570715,-4767245.551823,3441418.751800,1.579657
176471878280,182251257000,1421179523122204672,182251257000,122214000,25,1,17,20,5,9,123,16,26.150000,102.327003,1.139060,1.964326,3.646747,-1.820194,-6.904759,-6.204981,25,1,17,20,5,5,0,9,4,32.865375,-117.254180,-14.204000,-2455733.165110,-4767246.093444,3441419.673078,6.049435,6.437157,11.879957,-149.895737,-10.586208,51.106873,-0.031172,0.436391,0.857180,-0.271723,133,32.865372,-117.254177,-15.478325,-2455732.579720,-4767245.554386,3441418.743093,1.581626
176496535151,182276257000,1421179523147204864,182276257000,147214000,25,1,17,20,5,9,148,0,26.150000,102.327003,1.136517,1.965506,3.648154,-1.559642,-6.780689,-5.854487,25,1,17,20,5,5,0,9,4,32.865375,-117.254180,-14.204000,-2455733.165110,-4767246.093444,3441419.673078,6.049435,6.437157,11.879957,-148.876266,-10.326592,51.948341,-0.039082,0.441904,0.851947,-0.278171,133,32.865372,-117.254177,-15.477929,-2455732.588416,-4767245.556943,3441418.734140,1.583610
176522265465,182301257000,1421179523172204800,182301257000,172214000,25,1,17,20,5,9,173,16,26.150000,102.315002,1.133980,1.967896,3.650490,-1.460104,-6.785246,-5.502190,25,1,17,20,5,5,0,9,4,32.865375,-117.254180,-14.204000,-2455733.165110,-4767246.093444,3441419.673078,6.049435,6.437157,11.879957,-147.791290,-10.012420,52.751286,-0.047649,0.446879,0.846707,-0.284810,32901,32.865371,-117.254177,-15.477981,-2455732.596753,-4767245.559284,3441418.724913,1.585607
176546705114,182326257000,1421179523197204736,182326257000,197214000,25,1,17,20,5,9,198,16,26.150000,102.315002,1.132599,1.969817,3.652359,-1.529279,-6.821155,-5.326562,25,1,17,20,5,5,0,9,4,32.865375,-117.254180,-14.204000,-2455733.165110,-4767246.093444,3441419.673078,6.049435,6.437157,11.879957,-146.629593,-9.583909,53.479702,-0.057269,0.450910,0.841676,-0.291517,32901,32.865371,-117.254177,-15.478631,-2455732.604698,-4767245.561265,3441418.715359,1.587618
176572138039,182351257000,1421179523222204928,182351257000,222214000,25,1,17,20,5,9,223,16,26.150000,102.315002,1.128430,1.971227,3.655189,-1.096887,-6.994476,-5.403678,25,1,17,20,5,5,0,9,4,32.865375,-117.254180,-14.204000,-2455733.165110,-4767246.093444,3441419.673078,6.049435,6.437157,11.879957,-145.377502,-9.051777,54.054264,-0.067686,0.453392,0.837119,-0.298473,133,32.865371,-117.254178,-15.479871,-2455732.612351,-4767245.562892,3441418.705411,1.589642
176596343928,182376257000,1421179523247204864,182376257000,247214000,25,1,17,20,5,9,248,0,26.150000,102.315002,1.124011,1.972418,3.661111,-0.580291,-6.994277,-5.231168,25,1,17,20,5,5,200,9,4,32.865374,-117.254180,-14.076000,-2455733.235110,-4767246.233444,3441419.673078,6.110810,6.452949,12.035683,-144.233215,-8.567977,54.545845,-0.077132,0.455260,0.833014,-0.304757,133,32.865371,-117.254178,-15.432180,-2455732.628366,-4767245.602674,3441418.727203,1.591271
176621564002,182401257000,1421179523272204800,182401257000,272214000,25,1,17,20,5,9,273,16,26.150000,102.327003,1.120552,1.975032,3.662968,-0.745528,-7.063453,-5.348258,25,1,17,20,5,5,200,9,4,32.865374,-117.254180,-14.076000,-2455733.235110,-4767246.233444,3441419.673078,6.110810,6.452949,12.035683,-143.382111,-8.207878,55.055241,-0.084565,0.457591,0.829346,-0.309264,133,32.865371,-117.254178,-15.434511,-2455732.634702,-4767245.603544,3441418.717220,1.583230
176646764428,182426257000,1421179523297204736,182426257000,297214000,25,1,17,20,5,9,298,16,26.150000,102.315002,1.119174,1.975729,3.662245,-0.699496,-7.308600,-5.462544,25,1,17,20,5,5,200,9,4,32.865374,-117.254180,-14.076000,-2455733.235110,-4767246.233444,3441419.673078,6.110810,6.452949,12.035683,-142.701492,-7.920783,55.577721,-0.090834,0.460219,0.825923,-0.312729,32901,32.865371,-117.254178,-15.437424,-2455732.640621,-4767245.604000,3441418.707028,1.585232
176671302354,182451257000,1421179523322204928,182451257000,322214000,25,1,17,20,5,9,323,16,26.150000,102.315002,1.117098,1.977399,3.663881,-0.926146,-7.543444,-5.576337,25,1,17,20,5,5,200,9,4,32.865374,-117.254180,-14.076000,-2455733.235110,-4767246.233444,3441419.673078,6.110810,6.452949,12.035683,-142.065048,-7.672878,56.082809,-0.096610,0.462782,0.822591,-0.315979,32901,32.865371,-117.254178,-15.440716,-2455732.645389,-4767245.604631,3441418.696714,1.587245
176696715539,182476257000,1421179523347204864,182476257000,347214000,25,1,17,20,5,9,348,0,26.150000,102.327003,1.115258,1.980525,3.666917,-0.630438,-7.700012,-5.601489,25,1,17,20,5,5,200,9,4,32.865374,-117.254180,-14.076000,-2455733.235110,-4767246.233444,3441419.673078,6.110810,6.452949,12.035683,-141.465759,-7.481924,56.514095,-0.101634,0.464923,0.819533,-0.319190,133,32.865371,-117.254178,-15.444258,-2455732.650368,-4767245.604804,3441418.686420,1.589275
176722845225,182501257000,1421179523372204800,182501257000,372214000,25,1,17,20,5,9,373,16,26.159998,102.319008,1.114350,1.981706,3.665709,-0.712996,-7.886453,-5.552292,25,1,17,20,5,5,200,9,4,32.865374,-117.254180,-14.076000,-2455733.235110,-4767246.233444,3441419.673078,6.110810,6.452949,12.035683,-141.015976,-7.370264,56.895313,-0.105346,0.466983,0.816931,-0.321641,133,32.865371,-117.254178,-15.447952,-2455732.654867,-4767245.604940,3441418.676236,1.591319
176746589021,182526257000,1421179523397204992,182526257000,397214000,25,1,17,20,5,9,398,16,26.170000,102.319008,1.114841,1.984111,3.664955,-0.789136,-7.952301,-5.391078,25,1,17,20,5,5,200,9,4,32.865374,-117.254180,-14.076000,-2455733.235110,-4767246.233444,3441419.673078,6.110810,6.452949,12.035683,-140.710388,-7.314029,57.229763,-0.107945,0.468950,0.814810,-0.323294,32901,32.865371,-117.254178,-15.451744,-2455732.658967,-4767245.605069,3441418.666165,1.593376
176772901206,182551257000,1421179523422204672,182551257000,422214000,25,1,17,20,5,9,423,16,26.155001,102.302002,1.114369,1.983145,3.664973,-0.365290,-7.923372,-5.350352,25,1,17,20,5,5,200,9,4,32.865374,-117.254180,-14.076000,-2455733.235110,-4767246.233444,3441419.673078,6.110810,6.452949,12.035683,-140.501343,-7.265545,57.533630,-0.110014,0.470797,0.813064,-0.324307,32901,32.865371,-117.254178,-15.455645,-2455732.662782,-4767245.605140,3441418.656176,1.595447
176797073002,182576257000,1421179523447204864,182576257000,447214000,25,1,17,20,5,9,448,0,26.165001,102.315002,1.114615,1.985080,3.665891,0.118428,-7.738615,-5.529867,25,1,17,20,5,5,400,9,4,32.865374,-117.254181,-14.062000,-2455733.295110,-4767246.243444,3441419.633078,6.138002,6.474834,12.176974,-140.473129,-7.274251,57.860153,-0.110991,0.473105,0.811623,-0.324225,133,32.865371,-117.254178,-15.459703,-2455732.666199,-4767245.605057,3441418.646390,1.597114
176822378669,182601257000,1421179523472204800,182601257000,472214000,25,1,17,20,5,9,473,16,26.150000,102.315002,1.113965,1.987933,3.662753,0.202080,-7.693960,-5.355527,25,1,17,20,5,5,400,9,4,32.865374,-117.254181,-14.062000,-2455733.295110,-4767246.243444,3441419.633078,6.138002,6.474834,12.176974,-140.705902,-7.386064,58.267979,-0.110366,0.476474,0.810379,-0.322610,133,32.865371,-117.254178,-15.393217,-2455732.710715,-4767245.640589,3441418.688461,1.587288
176847798039,182626257000,1421179523497204736,182626257000,497214000,25,1,17,20,5,9,498,16,26.150000,102.327003,1.117935,1.988914,3.658458,-0.066361,-7.848007,-5.481658,25,1,17,20,5,5,400,9,4,32.865374,-117.254181,-14.062000,-2455733.295110,-4767246.243444,3441419.633078,6.138002,6.474834,12.176974,-141.173096,-7.594071,58.789238,-0.108366,0.481077,0.809117,-0.319611,32901,32.865371,-117.254178,-15.397684,-2455732.712445,-4767245.640156,3441418.679599,1.589319
176873111743,182651257000,1421179523522204928,182651257000,522214000,25,1,17,20,5,9,523,16,26.170000,102.319008,1.119629,1.994189,3.653850,-0.094618,-7.984259,-5.580241,25,1,17,20,5,5,400,9,4,32.865374,-117.254181,-14.062000,-2455733.295110,-4767246.243444,3441419.633078,6.138002,6.474834,12.176974,-141.804581,-7.842555,59.429344,-0.105673,0.486736,0.807692,-0.315524,32901,32.865370,-117.254178,-15.402338,-2455732.713388,-4767245.639655,3441418.671045,1.591364
176896328447,182676257000,1421179523547204608,182676257000,547214000,25,1,17,20,5,9,548,0,26.165001,102.327003,1.120623,1.997512,3.646900,-0.391546,-8.164971,-5.525150,25,1,17,20,5,5,400,9,4,32.865374,-117.254181,-14.062000,-2455733.295110,-4767246.243444,3441419.633078,6.138002,6.474834,12.176974,-142.516037,-8.035616,60.186947,-0.103304,0.493136,0.806029,-0.310584,133,32.865370,-117.254178,-15.407054,-2455732.713514,-4767245.639210,3441418.662877,1.593425
176922709336,182701257000,1421179523572204800,182701257000,572214000,25,1,17,20,5,9,573,16,26.170000,102.331001,1.123939,2.002323,3.641588,-0.568751,-8.145042,-5.549884,25,1,17,20,5,5,400,9,4,32.865374,-117.254181,-14.062000,-2455733.295110,-4767246.243444,3441419.633078,6.138002,6.474834,12.176974,-143.149719,-8.094146,61.004303,-0.102334,0.499570,0.804081,-0.305632,133,32.865370,-117.254178,-15.411779,-2455732.712944,-4767245.638917,3441418.654976,1.595500
176948063780,182726257000,1421179523597204992,182726257000,597214000,25,1,17,20,5,9,598,16,26.170000,102.319008,1.124726,2.008048,3.634598,-0.370098,-8.473956,-5.224870,25,1,17,20,5,5,400,9,4,32.865374,-117.254181,-14.062000,-2455733.295110,-4767246.243444,3441419.633078,6.138002,6.474834,12.176974,-143.597504,-7.999447,61.854942,-0.103304,0.505738,0.801715,-0.301347,32901,32.865370,-117.254178,-15.416496,-2455732.711707,-4767245.638848,3441418.647256,1.597589
176972324484,182751257000,1421179523622204672,182751257000,622214000,25,1,17,20,5,9,623,16,26.170000,102.319008,1.123177,2.014012,3.631406,0.056271,-8.505028,-5.338246,25,1,17,20,5,5,400,9,4,32.865374,-117.254181,-14.062000,-2455733.295110,-4767246.243444,3441419.633078,6.138002,6.474834,12.176974,-143.934418,-7.797234,62.733925,-0.105556,0.511775,0.799075,-0.297360,32901,32.865370,-117.254178,-15.421156,-2455732.709879,-4767245.638903,3441418.639891,1.599693
176997598317,182776257000,1421179523647204864,182776257000,647214000,25,1,17,20,5,9,648,0,26.169998,102.319008,1.123953,2.019511,3.626082,0.098321,-8.653730,-5.265769,25,1,17,20,5,5,600,9,4,32.865373,-117.254181,-14.009000,-2455733.325110,-4767246.313444,3441419.623078,6.147127,6.503571,12.301981,-144.383835,-7.612882,63.701416,-0.107344,0.518561,0.796229,-0.292560,32901,32.865370,-117.254178,-15.425745,-2455732.707274,-4767245.639086,3441418.633029,1.601387
177022052687,182801257000,1421179523672204800,182801257000,672214000,25,1,17,20,5,9,673,16,26.170000,102.319008,1.125198,2.025005,3.619571,-0.091244,-9.143046,-5.165201,25,1,17,20,5,5,600,9,4,32.865373,-117.254181,-14.009000,-2455733.325110,-4767246.313444,3441419.623078,6.147127,6.503571,12.301981,-145.056824,-7.567741,64.748611,-0.107244,0.526366,0.793240,-0.286720,133,32.865370,-117.254178,-15.352276,-2455732.714280,-4767245.696863,3441418.683947,1.590620
177047540817,182826257000,1421179523697204736,182826257000,697214000,25,1,17,20,5,9,698,16,26.170000,102.319008,1.129008,2.031239,3.610907,-0.163825,-9.314067,-5.089368,25,1,17,20,5,5,600,9,4,32.865373,-117.254181,-14.009000,-2455733.325110,-4767246.313444,3441419.623078,6.147127,6.503571,12.301981,-145.918213,-7.640456,65.827347,-0.105408,0.534755,0.790240,-0.280083,133,32.865370,-117.254178,-15.356121,-2455732.709854,-4767245.697879,3441418.678600,1.592672
177072939095,182851257000,1421179523722204928,182851257000,722214000,25,1,17,20,5,9,723,16,26.170000,102.319008,1.130267,2.035489,3.599426,-0.564802,-9.359717,-4.537579,25,1,17,20,5,5,600,9,4,32.865373,-117.254181,-14.009000,-2455733.325110,-4767246.313444,3441419.623078,6.147127,6.503571,12.301981,-146.810211,-7.710235,66.921753,-0.103362,0.543226,0.787117,-0.273255,32901,32.865370,-117.254178,-15.359521,-2455732.704798,-4767245.699349,3441418.673896,1.594740
177097155187,182876257000,1421179523747204864,182876257000,747214000,25,1,17,20,5,9,748,0,26.169998,102.319008,1.130614,2.043124,3.591452,-0.633644,-9.464025,-4.316711,25,1,17,20,5,5,600,9,4,32.865373,-117.254181,-14.009000,-2455733.325110,-4767246.313444,3441419.623078,6.147127,6.503571,12.301981,-147.571274,-7.714933,67.964447,-0.102153,0.551064,0.783925,-0.267124,32901,32.865370,-117.254178,-15.362533,-2455732.699402,-4767245.701140,3441418.669707,1.596822
177122848095,182901257000,1421179523772204800,182901257000,772214000,25,1,17,20,5,9,773,16,26.170000,102.306007,1.131599,2.045732,3.585229,-0.632111,-9.611458,-3.953481,25,1,17,20,5,5,600,9,4,32.865373,-117.254181,-14.009000,-2455733.325110,-4767246.313444,3441419.623078,6.147127,6.503571,12.301981,-148.293243,-7.694992,68.959679,-0.101092,0.558466,0.780807,-0.261221,133,32.865370,-117.254178,-15.365187,-2455732.693716,-4767245.703215,3441418.665989,1.598919
177147147947,182926257000,1421179523797204736,182926257000,797214000,25,1,17,20,5,9,798,16,26.170000,102.331001,1.132870,2.052161,3.575374,-1.020600,-9.703154,-3.757351,25,1,17,20,5,5,600,9,4,32.865373,-117.254181,-14.009000,-2455733.325110,-4767246.313444,3441419.623078,6.147127,6.503571,12.301981,-149.037567,-7.718222,69.874840,-0.099343,0.565379,0.777955,-0.255466,133,32.865370,-117.254178,-15.367470,-2455732.687818,-4767245.705510,3441418.662808,1.601032
177172631632,182951257000,1421179523822204928,182951257000,822214000,25,1,17,20,5,9,823,16,26.170000,102.319008,1.134068,2.053093,3.569654,-1.101455,-9.342134,-3.375143,25,1,17,20,5,5,600,9,4,32.865373,-117.254181,-14.009000,-2455733.325110,-4767246.313444,3441419.623078,6.147127,6.503571,12.301981,-149.709152,-7.803918,70.659317,-0.097148,0.571405,0.775394,-0.250645,32901,32.865370,-117.254178,-15.369398,-2455732.681854,-4767245.708065,3441418.659965,1.603160
177197933076,182976257000,1421179523847204864,182976257000,847214000,25,1,17,20,5,9,848,0,26.170000,102.319008,1.134846,2.058343,3.563385,-1.119784,-9.043031,-3.109992,25,1,17,20,5,5,800,9,4,32.865373,-117.254180,-13.975000,-2455733.285110,-4767246.373444,3441419.623078,6.162289,6.540116,12.437487,-150.225830,-7.901443,71.334328,-0.095349,0.576546,0.772961,-0.247051,32901,32.865370,-117.254177,-15.371210,-2455732.675849,-4767245.710694,3441418.657266,1.604873
177222118576,183001257000,1421179523872204800,183001257000,872214000,25,1,17,20,5,9,873,16,26.170000,102.319008,1.135323,2.056621,3.557949,-1.350901,-8.779911,-2.600990,25,1,17,20,5,5,800,9,4,32.865373,-117.254180,-13.975000,-2455733.285110,-4767246.373444,3441419.623078,6.162289,6.540116,12.437487,-150.544510,-7.992856,71.890770,-0.094302,0.580691,0.770673,-0.244883,133,32.865370,-117.254177,-15.307143,-2455732.675973,-4767245.764266,3441418.701524,1.594836
177247637872,183026257000,1421179523897204992,183026257000,897214000,25,1,17,20,5,9,898,16,26.170000,102.331001,1.136989,2.059015,3.553867,-1.450245,-8.323581,-2.459862,25,1,17,20,5,5,800,9,4,32.865373,-117.254180,-13.975000,-2455733.285110,-4767246.373444,3441419.623078,6.162289,6.540116,12.437487,-150.725754,-8.068022,72.306801,-0.093750,0.583742,0.768812,-0.243687,133,32.865370,-117.254177,-15.309297,-2455732.669687,-4767245.766569,3441418.698839,1.596909
177272019965,183051257000,1421179523922204672,183051257000,922214000,25,1,17,20,5,9,923,16,26.170000,102.319008,1.137700,2.059733,3.552192,-1.809152,-8.284673,-2.374030,25,1,17,20,5,5,800,9,4,32.865373,-117.254180,-13.975000,-2455733.285110,-4767246.373444,3441419.623078,6.162289,6.540116,12.437487,-150.896301,-8.158269,72.644348,-0.092974,0.586272,0.767291,-0.242707,32901,32.865370,-117.254177,-15.312064,-2455732.663337,-4767245.768401,3441418.695721,1.598994
177297320613,183076257000,1421179523947204864,183076257000,947214000,25,1,17,20,5,9,948,0,26.177500,102.319008,1.137729,2.060911,3.549083,-2.418906,-8.346244,-2.010946,25,1,17,20,5,5,800,9,4,32.865373,-117.254180,-13.975000,-2455733.285110,-4767246.373444,3441419.623078,6.162289,6.540116,12.437487,-150.991959,-8.232265,72.860641,-0.092433,0.587900,0.766253,-0.242252,32901,32.865370,-117.254177,-15.315436,-2455732.657046,-4767245.769826,3441418.692006,1.601090
177322811169,183101257000,1421179523972204800,183101257000,972214000,25,1,17,20,5,9,973,16,26.170000,102.319008,1.137493,2.060183,3.548621,-2.492555,-8.499338,-1.748087,25,1,17,20,5,5,800,9,4,32.865373,-117.254180,-13.975000,-2455733.285110,-4767246.373444,3441419.623078,6.162289,6.540116,12.437487,-150.825180,-8.235396,72.882584,-0.093313,0.587916,0.765782,-0.243364,133,32.865370,-117.254177,-15.319436,-2455732.651196,-4767245.770805,3441418.687434,1.603196
177347060113,183126257000,1421179523997204736,183126257000,997214000,25,1,17,20,5,9,998,16,26.175001,102.323006,1.137495,2.062380,3.552386,-2.444354,-8.427074,-1.883260,25,1,17,20,5,5,800,9,4,32.865373,-117.254180,-13.975000,-2455733.285110,-4767246.373444,3441419.623078,6.162289,6.540116,12.437487,-150.336777,-8.121422,72.716522,-0.096244,0.586240,0.765794,-0.246211,133,32.865370,-117.254177,-15.323993,-2455732.645936,-4767245.771311,3441418.682068,1.605309
177372414243,183151257000,1421179524022204928,183151257000,22216000,25,1,17,20,5,10,23,16,26.172499,102.319008,1.135370,2.059974,3.555756,-2.230473,-8.502835,-1.904239,25,1,17,20,5,5,800,9,4,32.865373,-117.254180,-13.975000,-2455733.285110,-4767246.373444,3441419.623078,6.162289,6.540116,12.437487,-149.622482,-7.935733,72.369072,-0.100411,0.583031,0.766355,-0.250384,32901,32.865370,-117.254177,-15.329118,-2455732.641185,-4767245.771365,3441418.675919,1.607431
177397705020,183176257000,1421179524047206656,183176257000,47216000,25,1,17,20,5,10,48,0,26.169998,102.331001,1.133229,2.057596,3.562452,-1.929405,-8.773334,-2.152566,25,1,17,20,5,6,0,9,4,32.865373,-117.254179,-14.003000,-2455733.225110,-4767246.373444,3441419.613078,6.209268,6.586919,12.555601,-148.765808,-7.661914,71.890015,-0.105580,0.578636,0.767392,-0.255230,32901,32.865370,-117.254177,-15.266607,-2455732.657670,-4767245.810740,3441418.725245,1.609134
177422079039,183201257000,1421179524072206848,183201257000,72216000,25,1,17,20,5,10,73,16,26.175001,102.323006,1.131319,2.056196,3.570795,-1.218983,-8.871871,-2.131096,25,1,17,20,5,6,0,9,4,32.865373,-117.254179,-14.003000,-2455733.225110,-4767246.373444,3441419.613078,6.209268,6.586919,12.555601,-147.885864,-7.330971,71.318504,-0.110997,0.573442,0.768894,-0.260088,133,32.865370,-117.254177,-15.272415,-2455732.653324,-4767245.810268,3441418.718272,1.598665
177447484280,183226257000,1421179524097206784,183226257000,97216000,25,1,17,20,5,10,98,16,26.175001,102.323006,1.128511,2.056203,3.576261,-1.040614,-8.956584,-2.600681,25,1,17,20,5,6,0,9,4,32.865373,-117.254179,-14.003000,-2455733.225110,-4767246.373444,3441419.613078,6.209268,6.586919,12.555601,-147.245026,-7.026625,70.799789,-0.115105,0.568815,0.770576,-0.263464,133,32.865370,-117.254177,-15.278618,-2455732.649686,-4767245.808894,3441418.711312,1.600725
177471900354,183251257000,1421179524122206720,183251257000,122216000,25,1,17,20,5,10,123,16,26.177502,102.323006,1.128694,2.053110,3.579880,-1.231261,-9.361314,-2.532896,25,1,17,20,5,6,0,9,4,32.865373,-117.254179,-14.003000,-2455733.225110,-4767246.373444,3441419.613078,6.209268,6.586919,12.555601,-146.842346,-6.795538,70.405357,-0.117782,0.565353,0.772023,-0.265487,32901,32.865370,-117.254177,-15.285067,-2455732.646113,-4767245.807138,3441418.704377,1.602797
177497190150,183276257000,1421179524147206656,183276257000,147216000,25,1,17,20,5,10,148,0,26.177500,102.306007,1.125665,2.053099,3.583446,-0.936591,-9.282395,-2.830728,25,1,17,20,5,6,0,9,4,32.865373,-117.254179,-14.003000,-2455733.225110,-4767246.373444,3441419.613078,6.209268,6.586919,12.555601,-146.517807,-6.656445,70.122910,-0.119684,0.562868,0.772915,-0.267316,32901,32.865370,-117.254177,-15.291565,-2455732.642876,-4767245.805095,3441418.697509,1.604880
177522599780,183301257000,1421179524172206592,183301257000,172216000,25,1,17,20,5,10,173,16,26.174999,102.319008,1.124707,2.051429,3.586565,-0.907206,-9.308524,-2.815777,25,1,17,20,5,6,0,9,4,32.865373,-117.254179,-14.003000,-2455733.225110,-4767246.373444,3441419.613078,6.209268,6.586919,12.555601,-146.284286,-6.607092,70.037003,-0.120971,0.561955,0.772881,-0.268751,133,32.865370,-117.254177,-15.298077,-2455732.639776,-4767245.802816,3441418.690841,1.606975
177547003798,183326257000,1421179524197206784,183326257000,197216000,25,1,17,20,5,10,198,16,26.180000,102.323006,1.124493,2.053107,3.586299,-1.046264,-9.299735,-2.877672,25,1,17,20,5,6,0,9,4,32.865373,-117.254179,-14.003000,-2455733.225110,-4767246.373444,3441419.613078,6.209268,6.586919,12.555601,-146.163849,-6.668177,70.120140,-0.121335,0.562498,0.772078,-0.269760,133,32.865370,-117.254177,-15.304612,-2455732.636799,-4767245.800295,3441418.684378,1.609084
177572405150,183351257000,1421179524222206720,183351257000,222216000,25,1,17,20,5,10,223,16,26.180000,102.323006,1.125421,2.052143,3.584414,-0.871633,-9.309559,-2.854633,25,1,17,20,5,6,0,9,4,32.865373,-117.254179,-14.003000,-2455733.225110,-4767246.373444,3441419.613078,6.209268,6.586919,12.555601,-146.102936,-6.821594,70.354134,-0.121127,0.564283,0.770498,-0.270639,32901,32.865370,-117.254177,-15.311156,-2455732.633999,-4767245.797571,3441418.678051,1.611204
177596681687,183376257000,1421179524247206656,183376257000,247216000,25,1,17,20,5,10,248,0,26.180000,102.323006,1.126578,2.050941,3.582535,-0.809621,-9.471876,-2.856817,25,1,17,20,5,6,200,9,4,32.865373,-117.254179,-13.964000,-2455733.215110,-4767246.443444,3441419.603078,6.256929,6.633635,12.662850,-146.124741,-7.041851,70.747353,-0.120431,0.567338,0.768194,-0.271111,32901,32.865370,-117.254176,-15.274811,-2455732.630749,-4767245.842021,3441418.686169,1.602867
177622083243,183401257000,1421179524272206848,183401257000,272216000,25,1,17,20,5,10,273,16,26.180000,102.323006,1.128690,2.052150,3.579661,-0.910379,-9.463060,-2.825090,25,1,17,20,5,6,200,9,4,32.865373,-117.254179,-13.964000,-2455733.215110,-4767246.443444,3441419.603078,6.256929,6.633635,12.662850,-146.244400,-7.297171,71.267639,-0.119312,0.571394,0.765408,-0.270969,32901,32.865370,-117.254176,-15.281163,-2455732.627914,-4767245.839152,3441418.680421,1.604956
177647493594,183426257000,1421179524297206528,183426257000,297216000,25,1,17,20,5,10,298,16,26.180000,102.323006,1.129874,2.053347,3.577026,-0.974624,-9.408463,-2.919667,25,1,17,20,5,6,200,9,4,32.865373,-117.254179,-13.964000,-2455733.215110,-4767246.443444,3441419.603078,6.256929,6.633635,12.662850,-146.434784,-7.544684,71.863411,-0.118068,0.575991,0.762402,-0.270256,133,32.865370,-117.254176,-15.287474,-2455732.625161,-4767245.836120,3441418.674915,1.607058
177671806539,183451257000,1421179524322206720,183451257000,322216000,25,1,17,20,5,10,323,16,26.180000,102.323006,1.131541,2.055495,3.572236,-1.054100,-9.380198,-2.853166,25,1,17,20,5,6,200,9,4,32.865373,-117.254179,-13.964000,-2455733.215110,-4767246.443444,3441419.603078,6.256929,6.633635,12.662850,-146.667328,-7.780974,72.473251,-0.116714,0.580680,0.759416,-0.269215,133,32.865370,-117.254176,-15.293732,-2455732.622409,-4767245.833004,3441418.669619,1.609174
177697151835,183476257000,1421179524347206912,183476257000,347216000,25,1,17,20,5,10,348,0,26.180000,102.323006,1.133667,2.056193,3.565808,-1.098566,-9.438458,-2.967449,25,1,17,20,5,6,200,9,4,32.865373,-117.254179,-13.964000,-2455733.215110,-4767246.443444,3441419.603078,6.256929,6.633635,12.662850,-146.948090,-7.992404,73.063179,-0.115226,0.585217,0.756663,-0.267778,32901,32.865370,-117.254176,-15.299935,-2455732.619613,-4767245.829853,3441418.664507,1.611302
177722405724,183501257000,1421179524372206592,183501257000,372216000,25,1,17,20,5,10,373,16,26.180000,102.323006,1.135300,2.056687,3.564611,-1.022937,-9.456910,-2.844659,25,1,17,20,5,6,200,9,4,32.865373,-117.254179,-13.964000,-2455733.215110,-4767246.443444,3441419.603078,6.256929,6.633635,12.662850,-147.278961,-8.140774,73.611298,-0.113798,0.589403,0.754335,-0.265768,32901,32.865370,-117.254176,-15.306037,-2455732.616721,-4767245.826764,3441418.659563,1.613443
177746856576,183526257000,1421179524397206784,183526257000,397216000,25,1,17,20,5,10,398,16,26.180000,102.323006,1.136764,2.060251,3.556944,-1.134285,-9.427595,-2.876435,25,1,17,20,5,6,200,9,4,32.865373,-117.254179,-13.964000,-2455733.215110,-4767246.443444,3441419.603078,6.256929,6.633635,12.662850,-147.692444,-8.229901,74.107941,-0.112205,0.593217,0.752553,-0.262995,133,32.865370,-117.254176,-15.312065,-2455732.613707,-4767245.823681,3441418.654834,1.615597
